%time,field.header.seq,field.header.stamp,field.header.frame_id,field.status.status,field.status.service,field.latitude,field.longitude,field.altitude,field.position_covariance0,field.position_covariance1,field.position_covariance2,field.position_covariance3,field.position_covariance4,field.position_covariance5,field.position_covariance6,field.position_covariance7,field.position_covariance8,field.position_covariance_type
1549409014546818993,33363,1549409011933705263,map,0,2,33.9461798183,-83.3768337083,209.725,0.0001,0.0,0.0,0.0,0.0001,0.0,0.0,0.0,0.0001,2
1549409014546863164,33364,1549409011958763263,map,0,2,33.9461798183,-83.3768337083,209.725,0.0001,0.0,0.0,0.0,0.0001,0.0,0.0,0.0,0.0001,2
1549409014546869990,33365,1549409011983872513,map,0,2,33.9461798183,-83.3768336917,209.723,0.0001,0.0,0.0,0.0,0.0001,0.0,0.0,0.0,0.0001,2
1549409014546875291,33366,1549409012008741680,map,0,2,33.9461798183,-83.3768336917,209.723,0.0001,0.0,0.0,0.0,0.0001,0.0,0.0,0.0,0.0001,2
1549409014546917611,33367,1549409012033699930,map,0,2,33.9461798183,-83.3768336917,209.723,0.0001,0.0,0.0,0.0,0.0001,0.0,0.0,0.0,0.0001,2
1549409014546930238,33368,1549409012058824180,map,0,2,33.9461798183,-83.3768336917,209.723,0.0001,0.0,0.0,0.0,0.0001,0.0,0.0,0.0,0.0001,2
1549409014546936056,33369,1549409012083804263,map,0,2,33.946179825,-83.3768337033,209.722,0.0001,0.0,0.0,0.0,0.0001,0.0,0.0,0.0,0.0001,2
1549409014546946652,33370,1549409012108704263,map,0,2,33.946179825,-83.3768337033,209.722,0.0001,0.0,0.0,0.0,0.0001,0.0,0.0,0.0,0.0001,2
1549409014546952418,33371,1549409012133725930,map,0,2,33.946179825,-83.3768337033,209.722,0.0001,0.0,0.0,0.0,0.0001,0.0,0.0,0.0,0.0001,2
1549409014546958062,33372,1549409012158826180,map,0,2,33.946179825,-83.3768337033,209.722,0.0001,0.0,0.0,0.0,0.0001,0.0,0.0,0.0,0.0001,2
1549409014546962966,33373,1549409012183692013,map,0,2,33.946179815,-83.37683371,209.724,0.0001,0.0,0.0,0.0,0.0001,0.0,0.0,0.0,0.0001,2
1549409014546968391,33374,1549409012208762263,map,0,2,33.946179815,-83.37683371,209.724,0.0001,0.0,0.0,0.0,0.0001,0.0,0.0,0.0,0.0001,2
1549409014546973828,33375,1549409012233718180,map,0,2,33.946179815,-83.37683371,209.724,0.0001,0.0,0.0,0.0,0.0001,0.0,0.0,0.0,0.0001,2
1549409014547013676,33376,1549409012258706263,map,0,2,33.946179815,-83.37683371,209.724,0.0001,0.0,0.0,0.0,0.0001,0.0,0.0,0.0,0.0001,2
1549409014547022692,33377,1549409012283697513,map,0,2,33.9461798017,-83.3768337233,209.725,0.0001,0.0,0.0,0.0,0.0001,0.0,0.0,0.0,0.0001,2
1549409014547028384,33378,1549409012309379430,map,0,2,33.9461798017,-83.3768337233,209.725,0.0001,0.0,0.0,0.0,0.0001,0.0,0.0,0.0,0.0001,2
1549409014547034335,33379,1549409012334029846,map,0,2,33.9461798017,-83.3768337233,209.725,0.0001,0.0,0.0,0.0,0.0001,0.0,0.0,0.0,0.0001,2
1549409014547046405,33380,1549409012359263263,map,0,2,33.9461798017,-83.3768337233,209.725,0.0001,0.0,0.0,0.0,0.0001,0.0,0.0,0.0,0.0001,2
1549409014547050976,33381,1549409012383756430,map,0,2,33.946179795,-83.3768337117,209.725,0.0001,0.0,0.0,0.0,0.0001,0.0,0.0,0.0,0.0001,2
1549409014547062037,33382,1549409012408767679,map,0,2,33.946179795,-83.3768337117,209.725,0.0001,0.0,0.0,0.0,0.0001,0.0,0.0,0.0,0.0001,2
1549409014547081264,33383,1549409012433763513,map,0,2,33.946179795,-83.3768337117,209.725,0.0001,0.0,0.0,0.0,0.0001,0.0,0.0,0.0,0.0001,2
1549409014547115991,33384,1549409012458701679,map,0,2,33.946179795,-83.3768337117,209.725,0.0001,0.0,0.0,0.0,0.0001,0.0,0.0,0.0,0.0001,2
1549409014547130301,33385,1549409012483692929,map,0,2,33.9461797883,-83.3768337183,209.729,0.0001,0.0,0.0,0.0,0.0001,0.0,0.0,0.0,0.0001,2
1549409014547173056,33386,1549409012508751513,map,0,2,33.9461797883,-83.3768337183,209.729,0.0001,0.0,0.0,0.0,0.0001,0.0,0.0,0.0,0.0001,2
1549409014547188152,33387,1549409012533726179,map,0,2,33.9461797883,-83.3768337183,209.729,0.0001,0.0,0.0,0.0,0.0001,0.0,0.0,0.0,0.0001,2
1549409014547938629,33388,1549409012558757596,map,0,2,33.9461797883,-83.3768337183,209.729,0.0001,0.0,0.0,0.0,0.0001,0.0,0.0,0.0,0.0001,2
1549409014547948149,33389,1549409012584803429,map,0,2,33.9461797783,-83.3768337317,209.725,0.0001,0.0,0.0,0.0,0.0001,0.0,0.0,0.0,0.0001,2
1549409014547953182,33390,1549409012610065346,map,0,2,33.9461797783,-83.3768337317,209.725,0.0001,0.0,0.0,0.0,0.0001,0.0,0.0,0.0,0.0001,2
1549409014547958970,33391,1549409012634835263,map,0,2,33.9461797783,-83.3768337317,209.725,0.0001,0.0,0.0,0.0,0.0001,0.0,0.0,0.0,0.0001,2
1549409014547967108,33392,1549409012658745179,map,0,2,33.9461797783,-83.3768337317,209.725,0.0001,0.0,0.0,0.0,0.0001,0.0,0.0,0.0,0.0001,2
1549409014547972161,33393,1549409012683726679,map,0,2,33.94617977,-83.3768337433,209.725,0.0001,0.0,0.0,0.0,0.0001,0.0,0.0,0.0,0.0001,2
1549409014547977325,33394,1549409012708694429,map,0,2,33.94617977,-83.3768337433,209.725,0.0001,0.0,0.0,0.0,0.0001,0.0,0.0,0.0,0.0001,2
1549409014547990627,33395,1549409012736951763,map,0,2,33.94617977,-83.3768337433,209.725,0.0001,0.0,0.0,0.0,0.0001,0.0,0.0,0.0,0.0001,2
1549409014547998289,33396,1549409012758703346,map,0,2,33.94617977,-83.3768337433,209.725,0.0001,0.0,0.0,0.0,0.0001,0.0,0.0,0.0,0.0001,2
1549409014548011196,33397,1549409012783927763,map,0,2,33.9461797633,-83.3768337283,209.722,0.0001,0.0,0.0,0.0,0.0001,0.0,0.0,0.0,0.0001,2
1549409014548028396,33398,1549409012810255179,map,0,2,33.9461797633,-83.3768337283,209.722,0.0001,0.0,0.0,0.0,0.0001,0.0,0.0,0.0,0.0001,2
1549409014548033509,33399,1549409012834906846,map,0,2,33.9461797633,-83.3768337283,209.722,0.0001,0.0,0.0,0.0,0.0001,0.0,0.0,0.0,0.0001,2
1549409014548040677,33400,1549409012858762513,map,0,2,33.946179785,-83.3768337283,209.722,0.0001,0.0,0.0,0.0,0.0001,0.0,0.0,0.0,0.0001,2
1549409014548059872,33401,1549409012884887096,map,0,2,33.946179785,-83.3768337267,209.724,0.0001,0.0,0.0,0.0,0.0001,0.0,0.0,0.0,0.0001,2
1549409014548078599,33402,1549409012912567679,map,0,2,33.946179785,-83.3768337267,209.724,0.0001,0.0,0.0,0.0,0.0001,0.0,0.0,0.0,0.0001,2
1549409014548085340,33403,1549409012933709513,map,0,2,33.946179785,-83.3768337267,209.724,0.0001,0.0,0.0,0.0,0.0001,0.0,0.0,0.0,0.0001,2
1549409014548090880,33404,1549409012958694096,map,0,2,33.946179785,-83.3768337267,209.724,0.0001,0.0,0.0,0.0,0.0001,0.0,0.0,0.0,0.0001,2
1549409014548101682,33405,1549409012983826763,map,0,2,33.9461797767,-83.37683372,209.726,0.0001,0.0,0.0,0.0,0.0001,0.0,0.0,0.0,0.0001,2
1549409014548122874,33406,1549409013011227929,map,0,2,33.9461797767,-83.37683372,209.726,0.0001,0.0,0.0,0.0,0.0001,0.0,0.0,0.0,0.0001,2
1549409014548132967,33407,1549409013033836929,map,0,2,33.9461797767,-83.37683372,209.726,0.0001,0.0,0.0,0.0,0.0001,0.0,0.0,0.0,0.0001,2
1549409014548146029,33408,1549409013060231513,map,0,2,33.946179785,-83.37683372,209.726,0.0001,0.0,0.0,0.0,0.0001,0.0,0.0,0.0,0.0001,2
1549409014548151195,33409,1549409013084723763,map,0,2,33.946179785,-83.3768337467,209.723,0.0001,0.0,0.0,0.0,0.0001,0.0,0.0,0.0,0.0001,2
1549409014548171943,33410,1549409013113280013,map,0,2,33.946179785,-83.3768337467,209.723,0.0001,0.0,0.0,0.0,0.0001,0.0,0.0,0.0,0.0001,2
1549409014548187406,33411,1549409013133793679,map,0,2,33.946179785,-83.3768337467,209.723,0.0001,0.0,0.0,0.0,0.0001,0.0,0.0,0.0,0.0001,2
1549409014548202353,33412,1549409013159152596,map,0,2,33.9461798917,-83.3768336483,209.723,0.0001,0.0,0.0,0.0,0.0001,0.0,0.0,0.0,0.0001,2
1549409014548222407,33413,1549409013183825929,map,0,2,33.9461798917,-83.3768336483,209.732,0.0001,0.0,0.0,0.0,0.0001,0.0,0.0,0.0,0.0001,2
1549409014548236959,33414,1549409013211804346,map,0,2,33.9461798917,-83.3768336483,209.732,0.0001,0.0,0.0,0.0,0.0001,0.0,0.0,0.0,0.0001,2
1549409014548622808,33415,1549409013236148513,map,0,2,33.9461798917,-83.3768336483,209.732,0.0001,0.0,0.0,0.0,0.0001,0.0,0.0,0.0,0.0001,2
1549409014549876432,33416,1549409013264904596,map,0,2,33.94617989,-83.3768336483,209.732,0.0001,0.0,0.0,0.0,0.0001,0.0,0.0,0.0,0.0001,2
1549409014549880799,33417,1549409013285482096,map,0,2,33.94617989,-83.3768336467,209.731,0.0001,0.0,0.0,0.0,0.0001,0.0,0.0,0.0,0.0001,2
1549409014549885235,33418,1549409013311060179,map,0,2,33.94617989,-83.3768336467,209.731,0.0001,0.0,0.0,0.0,0.0001,0.0,0.0,0.0,0.0001,2
1549409014549890105,33419,1549409013338696096,map,0,2,33.94617989,-83.3768336467,209.731,0.0001,0.0,0.0,0.0,0.0001,0.0,0.0,0.0,0.0001,2
1549409014549922940,33420,1549409013359208429,map,0,2,33.946179875,-83.3768336483,209.737,0.0001,0.0,0.0,0.0,0.0001,0.0,0.0,0.0,0.0001,2
1549409014549928123,33421,1549409013387903263,map,0,2,33.946179875,-83.3768336483,209.737,0.0001,0.0,0.0,0.0,0.0001,0.0,0.0,0.0,0.0001,2
1549409014549933240,33422,1549409013416353263,map,0,2,33.946179875,-83.3768336483,209.737,0.0001,0.0,0.0,0.0,0.0001,0.0,0.0,0.0,0.0001,2
1549409014549937854,33423,1549409013436837929,map,0,2,33.946179875,-83.3768336483,209.737,0.0001,0.0,0.0,0.0,0.0001,0.0,0.0,0.0,0.0001,2
1549409014549942527,33424,1549409013465603929,map,0,2,33.9461798933,-83.3768336483,209.737,0.0001,0.0,0.0,0.0,0.0001,0.0,0.0,0.0,0.0001,2
1549409014549947494,33425,1549409013486122846,map,0,2,33.9461798933,-83.3768336367,209.734,0.0001,0.0,0.0,0.0,0.0001,0.0,0.0,0.0,0.0001,2
1549409014549952537,33426,1549409013510697096,map,0,2,33.9461798933,-83.3768336367,209.734,0.0001,0.0,0.0,0.0,0.0001,0.0,0.0,0.0,0.0001,2
1549409014549957428,33427,1549409013539416846,map,0,2,33.9461798933,-83.3768336367,209.734,0.0001,0.0,0.0,0.0,0.0001,0.0,0.0,0.0,0.0001,2
1549409014549962367,33428,1549409013563738763,map,0,2,33.946179885,-83.37683365,209.73,0.0001,0.0,0.0,0.0,0.0001,0.0,0.0,0.0,0.0001,2
1549409014549967173,33429,1549409013593955346,map,0,2,33.946179885,-83.37683365,209.73,0.0001,0.0,0.0,0.0,0.0001,0.0,0.0,0.0,0.0001,2
1549409014549972088,33430,1549409013642343679,map,0,2,33.946179885,-83.37683365,209.73,0.0001,0.0,0.0,0.0,0.0001,0.0,0.0,0.0,0.0001,2
1549409014549998091,33431,1549409013662307013,map,0,2,33.9461799033,-83.3768336433,209.734,0.0001,0.0,0.0,0.0,0.0001,0.0,0.0,0.0,0.0001,2
1549409014550003144,33432,1549409013691001263,map,0,2,33.9461799033,-83.3768336433,209.734,0.0001,0.0,0.0,0.0,0.0001,0.0,0.0,0.0,0.0001,2
1549409014550341578,33433,1549409013711492763,map,0,2,33.9461799033,-83.3768336433,209.734,0.0001,0.0,0.0,0.0,0.0001,0.0,0.0,0.0,0.0001,2
1549409014550473365,33434,1549409013744141679,map,0,2,33.9461799033,-83.3768336433,209.734,0.0001,0.0,0.0,0.0,0.0001,0.0,0.0,0.0,0.0001,2
1549409014550493965,33435,1549409013764600679,map,0,2,33.946179885,-83.3768336467,209.734,0.0001,0.0,0.0,0.0,0.0001,0.0,0.0,0.0,0.0001,2
1549409014550527611,33436,1549409013808742429,map,0,2,33.946179885,-83.3768336467,209.734,0.0001,0.0,0.0,0.0,0.0001,0.0,0.0,0.0,0.0001,2
1549409014550532466,33437,1549409013833695179,map,0,2,33.946179885,-83.3768336467,209.734,0.0001,0.0,0.0,0.0,0.0001,0.0,0.0,0.0,0.0001,2
1549409014550674381,33438,1549409013859053512,map,0,2,33.946179885,-83.3768336467,209.734,0.0001,0.0,0.0,0.0,0.0001,0.0,0.0,0.0,0.0001,2
1549409014550679149,33439,1549409013883764762,map,0,2,33.9461798833,-83.37683366,209.73,0.0001,0.0,0.0,0.0,0.0001,0.0,0.0,0.0,0.0001,2
1549409014550684248,33440,1549409013908729846,map,0,2,33.9461798833,-83.37683366,209.73,0.0001,0.0,0.0,0.0,0.0001,0.0,0.0,0.0,0.0001,2
1549409014550688731,33441,1549409013933694512,map,0,2,33.9461798833,-83.37683366,209.73,0.0001,0.0,0.0,0.0,0.0001,0.0,0.0,0.0,0.0001,2
1549409014550693165,33442,1549409013959142096,map,0,2,33.9461798833,-83.37683366,209.73,0.0001,0.0,0.0,0.0,0.0001,0.0,0.0,0.0,0.0001,2
1549409014550704861,33443,1549409013983698596,map,0,2,33.9461798917,-83.376833655,209.735,0.0001,0.0,0.0,0.0,0.0001,0.0,0.0,0.0,0.0001,2
1549409014550708753,33444,1549409014008741096,map,0,2,33.9461798917,-83.376833655,209.735,0.0001,0.0,0.0,0.0,0.0001,0.0,0.0,0.0,0.0001,2
1549409014550712834,33445,1549409014034404262,map,0,2,33.9461798917,-83.376833655,209.735,0.0001,0.0,0.0,0.0,0.0001,0.0,0.0,0.0,0.0001,2
1549409014550717328,33446,1549409014058875679,map,0,2,33.9461798917,-83.376833655,209.735,0.0001,0.0,0.0,0.0,0.0001,0.0,0.0,0.0,0.0001,2
1549409014550734077,33447,1549409014083846012,map,0,2,33.9461798817,-83.3768336583,209.735,0.0001,0.0,0.0,0.0,0.0001,0.0,0.0,0.0,0.0001,2
1549409014550738707,33448,1549409014108746512,map,0,2,33.9461798817,-83.3768336583,209.735,0.0001,0.0,0.0,0.0,0.0001,0.0,0.0,0.0,0.0001,2
1549409014550743101,33449,1549409014133849762,map,0,2,33.9461798817,-83.3768336583,209.735,0.0001,0.0,0.0,0.0,0.0001,0.0,0.0,0.0,0.0001,2
1549409014550747324,33450,1549409014158974012,map,0,2,33.9461798817,-83.3768336583,209.735,0.0001,0.0,0.0,0.0,0.0001,0.0,0.0,0.0,0.0001,2
1549409014550757293,33451,1549409014183842512,map,0,2,33.946179905,-83.3768336267,209.738,0.0001,0.0,0.0,0.0,0.0001,0.0,0.0,0.0,0.0001,2
1549409014550791807,33452,1549409014208758929,map,0,2,33.946179905,-83.3768336267,209.738,0.0001,0.0,0.0,0.0,0.0001,0.0,0.0,0.0,0.0001,2
1549409014550796523,33453,1549409014233716929,map,0,2,33.946179905,-83.3768336267,209.738,0.0001,0.0,0.0,0.0,0.0001,0.0,0.0,0.0,0.0001,2
1549409014550800952,33454,1549409014258697262,map,0,2,33.946179905,-83.3768336267,209.738,0.0001,0.0,0.0,0.0,0.0001,0.0,0.0,0.0,0.0001,2
1549409014550805534,33455,1549409014283700846,map,0,2,33.9461799017,-83.3768336267,209.739,0.0001,0.0,0.0,0.0,0.0001,0.0,0.0,0.0,0.0001,2
1549409014550809695,33456,1549409014308752179,map,0,2,33.9461799017,-83.3768336267,209.739,0.0001,0.0,0.0,0.0,0.0001,0.0,0.0,0.0,0.0001,2
1549409014550815148,33457,1549409014333754012,map,0,2,33.9461799017,-83.3768336267,209.739,0.0001,0.0,0.0,0.0,0.0001,0.0,0.0,0.0,0.0001,2
1549409014550820200,33458,1549409014358761846,map,0,2,33.9461799017,-83.3768336267,209.739,0.0001,0.0,0.0,0.0,0.0001,0.0,0.0,0.0,0.0001,2
1549409014550824986,33459,1549409014383839679,map,0,2,33.9461798867,-83.3768336233,209.738,0.0001,0.0,0.0,0.0,0.0001,0.0,0.0,0.0,0.0001,2
1549409014550829957,33460,1549409014408837429,map,0,2,33.9461798867,-83.3768336233,209.738,0.0001,0.0,0.0,0.0,0.0001,0.0,0.0,0.0,0.0001,2
1549409014550834594,33461,1549409014433689679,map,0,2,33.9461798867,-83.3768336233,209.738,0.0001,0.0,0.0,0.0,0.0001,0.0,0.0,0.0,0.0001,2
1549409014553535600,33462,1549409014458871012,map,0,2,33.9461798867,-83.3768336233,209.738,0.0001,0.0,0.0,0.0,0.0001,0.0,0.0,0.0,0.0001,2
1549409014582319887,33463,1549409014483739512,map,0,2,33.9461799,-83.3768336367,209.74,0.0001,0.0,0.0,0.0,0.0001,0.0,0.0,0.0,0.0001,2
1549409014619702450,33464,1549409014508860262,map,0,2,33.9461799,-83.3768336367,209.74,0.0001,0.0,0.0,0.0,0.0001,0.0,0.0,0.0,0.0001,2
1549409014619721784,33465,1549409014533879512,map,0,2,33.9461799,-83.3768336367,209.74,0.0001,0.0,0.0,0.0,0.0001,0.0,0.0,0.0,0.0001,2
1549409014698293944,33466,1549409014558911429,map,0,2,33.9461799,-83.3768336367,209.74,0.0001,0.0,0.0,0.0,0.0001,0.0,0.0,0.0,0.0001,2
1549409014698299426,33467,1549409014583951762,map,0,2,33.9461799033,-83.3768336033,209.737,0.0001,0.0,0.0,0.0,0.0001,0.0,0.0,0.0,0.0001,2
1549409014761084010,33468,1549409014608857429,map,0,2,33.9461799033,-83.3768336033,209.737,0.0001,0.0,0.0,0.0,0.0001,0.0,0.0,0.0,0.0001,2
1549409014761096667,33469,1549409014634641596,map,0,2,33.9461799033,-83.3768336033,209.737,0.0001,0.0,0.0,0.0,0.0001,0.0,0.0,0.0,0.0001,2
1549409014761102895,33470,1549409014658838679,map,0,2,33.9461799033,-83.3768336033,209.737,0.0001,0.0,0.0,0.0,0.0001,0.0,0.0,0.0,0.0001,2
1549409014794002941,33471,1549409014683924679,map,0,2,33.9461798933,-83.3768335983,209.731,0.0001,0.0,0.0,0.0,0.0001,0.0,0.0,0.0,0.0001,2
1549409014794016344,33472,1549409014708719096,map,0,2,33.9461798933,-83.3768335983,209.731,0.0001,0.0,0.0,0.0,0.0001,0.0,0.0,0.0,0.0001,2
1549409014829738978,33473,1549409014733706596,map,0,2,33.9461798933,-83.3768335983,209.731,0.0001,0.0,0.0,0.0,0.0001,0.0,0.0,0.0,0.0001,2
1549409014925925245,33474,1549409014758737846,map,0,2,33.9461798933,-83.3768335983,209.731,0.0001,0.0,0.0,0.0,0.0001,0.0,0.0,0.0,0.0001,2
1549409014925931596,33475,1549409014783837179,map,0,2,33.946179895,-83.3768336033,209.734,0.0001,0.0,0.0,0.0,0.0001,0.0,0.0,0.0,0.0001,2
1549409014925938482,33476,1549409014809366179,map,0,2,33.946179895,-83.3768336033,209.734,0.0001,0.0,0.0,0.0,0.0001,0.0,0.0,0.0,0.0001,2
1549409014925980657,33477,1549409014833873846,map,0,2,33.946179895,-83.3768336033,209.734,0.0001,0.0,0.0,0.0,0.0001,0.0,0.0,0.0,0.0001,2
1549409014946391889,33478,1549409014858914846,map,0,2,33.946179895,-83.3768336033,209.734,0.0001,0.0,0.0,0.0,0.0001,0.0,0.0,0.0,0.0001,2
1549409014987169278,33479,1549409014883699429,map,0,2,33.9461799,-83.3768335867,209.733,0.0001,0.0,0.0,0.0,0.0001,0.0,0.0,0.0,0.0001,2
1549409014987223219,33480,1549409014908694596,map,0,2,33.9461799,-83.3768335867,209.733,0.0001,0.0,0.0,0.0,0.0001,0.0,0.0,0.0,0.0001,2
1549409015028243274,33481,1549409014933699429,map,0,2,33.9461799,-83.3768335867,209.733,0.0001,0.0,0.0,0.0,0.0001,0.0,0.0,0.0,0.0001,2
1549409015058759439,33482,1549409014958732096,map,0,2,33.9461799,-83.3768335867,209.733,0.0001,0.0,0.0,0.0,0.0001,0.0,0.0,0.0,0.0001,2
1549409015058788036,33483,1549409014983755929,map,0,2,33.9461798867,-83.3768336117,209.733,0.0001,0.0,0.0,0.0,0.0001,0.0,0.0,0.0,0.0001,2
1549409015097922170,33484,1549409015009900762,map,0,2,33.9461798867,-83.3768336117,209.733,0.0001,0.0,0.0,0.0,0.0001,0.0,0.0,0.0,0.0001,2
1549409015135725094,33485,1549409015034384762,map,0,2,33.9461798867,-83.3768336117,209.733,0.0001,0.0,0.0,0.0,0.0001,0.0,0.0,0.0,0.0001,2
1549409015135772065,33486,1549409015058788929,map,0,2,33.9461798867,-83.3768336117,209.733,0.0001,0.0,0.0,0.0,0.0001,0.0,0.0,0.0,0.0001,2
1549409015169427510,33487,1549409015083679096,map,0,2,33.9461799017,-83.3768335917,209.73,0.0001,0.0,0.0,0.0,0.0001,0.0,0.0,0.0,0.0001,2
1549409015206200570,33488,1549409015112063762,map,0,2,33.9461799017,-83.3768335917,209.73,0.0001,0.0,0.0,0.0,0.0001,0.0,0.0,0.0,0.0001,2
1549409015252107204,33489,1549409015136783346,map,0,2,33.9461799017,-83.3768335917,209.73,0.0001,0.0,0.0,0.0,0.0001,0.0,0.0,0.0,0.0001,2
1549409015252238530,33490,1549409015158736262,map,0,2,33.9461798983,-83.3768335917,209.73,0.0001,0.0,0.0,0.0,0.0001,0.0,0.0,0.0,0.0001,2
1549409015317943473,33491,1549409015183722595,map,0,2,33.9461798983,-83.37683362,209.737,0.0001,0.0,0.0,0.0,0.0001,0.0,0.0,0.0,0.0001,2
1549409015318010814,33492,1549409015211466929,map,0,2,33.9461798983,-83.37683362,209.737,0.0001,0.0,0.0,0.0,0.0001,0.0,0.0,0.0,0.0001,2
1549409015318016915,33493,1549409015233747845,map,0,2,33.9461798983,-83.37683362,209.737,0.0001,0.0,0.0,0.0,0.0001,0.0,0.0,0.0,0.0001,2
1549409015355461652,33494,1549409015259505679,map,0,2,33.9461799033,-83.37683362,209.737,0.0001,0.0,0.0,0.0,0.0001,0.0,0.0,0.0,0.0001,2
1549409015410985794,33495,1549409015284702595,map,0,2,33.9461799033,-83.3768336183,209.74,0.0001,0.0,0.0,0.0,0.0001,0.0,0.0,0.0,0.0001,2
1549409015411021335,33496,1549409015313557345,map,0,2,33.9461799033,-83.3768336183,209.74,0.0001,0.0,0.0,0.0,0.0001,0.0,0.0,0.0,0.0001,2
1549409015411217951,33497,1549409015333798429,map,0,2,33.9461799033,-83.3768336183,209.74,0.0001,0.0,0.0,0.0,0.0001,0.0,0.0,0.0,0.0001,2
1549409015460445923,33498,1549409015358741179,map,0,2,33.9461799133,-83.3768336183,209.74,0.0001,0.0,0.0,0.0,0.0001,0.0,0.0,0.0,0.0001,2
1549409015499463107,33499,1549409015387417929,map,0,2,33.9461799133,-83.37683362,209.735,0.0001,0.0,0.0,0.0,0.0001,0.0,0.0,0.0,0.0001,2
1549409015499472183,33500,1549409015409317845,map,0,2,33.9461799133,-83.37683362,209.735,0.0001,0.0,0.0,0.0,0.0001,0.0,0.0,0.0,0.0001,2
1549409015520818483,33501,1549409015435748762,map,0,2,33.9461799133,-83.37683362,209.735,0.0001,0.0,0.0,0.0,0.0001,0.0,0.0,0.0,0.0001,2
1549409015581816258,33502,1549409015460767012,map,0,2,33.9461799067,-83.37683362,209.735,0.0001,0.0,0.0,0.0,0.0001,0.0,0.0,0.0,0.0001,2
1549409015581866696,33503,1549409015484866595,map,0,2,33.9461799067,-83.3768336183,209.737,0.0001,0.0,0.0,0.0,0.0001,0.0,0.0,0.0,0.0001,2
1549409015624664387,33504,1549409015513543595,map,0,2,33.9461799067,-83.3768336183,209.737,0.0001,0.0,0.0,0.0,0.0001,0.0,0.0,0.0,0.0001,2
1549409015624890936,33505,1549409015534208929,map,0,2,33.9461799067,-83.3768336183,209.737,0.0001,0.0,0.0,0.0,0.0001,0.0,0.0,0.0,0.0001,2
1549409015672148862,33506,1549409015562856345,map,0,2,33.9461798983,-83.3768336183,209.737,0.0001,0.0,0.0,0.0,0.0001,0.0,0.0,0.0,0.0001,2
1549409015672924680,33507,1549409015583757095,map,0,2,33.9461798983,-83.3768336233,209.737,0.0001,0.0,0.0,0.0,0.0001,0.0,0.0,0.0,0.0001,2
1549409015728833031,33508,1549409015613713012,map,0,2,33.9461798983,-83.3768336233,209.737,0.0001,0.0,0.0,0.0,0.0001,0.0,0.0,0.0,0.0001,2
1549409015729056318,33509,1549409015640456095,map,0,2,33.9461798983,-83.3768336233,209.737,0.0001,0.0,0.0,0.0,0.0001,0.0,0.0,0.0,0.0001,2
1549409015753080395,33510,1549409015661040929,map,0,2,33.946179925,-83.376833605,209.735,0.0001,0.0,0.0,0.0,0.0001,0.0,0.0,0.0,0.0001,2
1549409015786527142,33511,1549409015689720345,map,0,2,33.946179925,-83.376833605,209.735,0.0001,0.0,0.0,0.0,0.0001,0.0,0.0,0.0,0.0001,2
1549409015816953729,33512,1549409015714607929,map,0,2,33.946179925,-83.376833605,209.735,0.0001,0.0,0.0,0.0,0.0001,0.0,0.0,0.0,0.0001,2
1549409015816969995,33513,1549409015734877262,map,0,2,33.946179925,-83.376833605,209.735,0.0001,0.0,0.0,0.0,0.0001,0.0,0.0,0.0,0.0001,2
1549409015851160220,33514,1549409015763550095,map,0,2,33.9461799167,-83.3768336167,209.735,0.0001,0.0,0.0,0.0,0.0001,0.0,0.0,0.0,0.0001,2
1549409015933151541,33515,1549409015787912095,map,0,2,33.9461799167,-83.3768336167,209.737,0.0001,0.0,0.0,0.0,0.0001,0.0,0.0,0.0,0.0001,2
1549409015933167730,33516,1549409015812510762,map,0,2,33.9461799167,-83.3768336167,209.737,0.0001,0.0,0.0,0.0,0.0001,0.0,0.0,0.0,0.0001,2
1549409015933173903,33517,1549409015841308262,map,0,2,33.9461799167,-83.3768336167,209.737,0.0001,0.0,0.0,0.0,0.0001,0.0,0.0,0.0,0.0001,2
1549409015959517367,33518,1549409015861729095,map,0,2,33.94617992,-83.3768336367,209.738,0.0001,0.0,0.0,0.0,0.0001,0.0,0.0,0.0,0.0001,2
1549409015959530652,33519,1549409015890446512,map,0,2,33.94617992,-83.3768336367,209.738,0.0001,0.0,0.0,0.0,0.0001,0.0,0.0,0.0,0.0001,2
1549409015995759779,33520,1549409015911876429,map,0,2,33.94617992,-83.3768336367,209.738,0.0001,0.0,0.0,0.0,0.0001,0.0,0.0,0.0,0.0001,2
1549409016176255276,33521,1549409015943489679,map,0,2,33.94617992,-83.3768336367,209.738,0.0001,0.0,0.0,0.0,0.0001,0.0,0.0,0.0,0.0001,2
1549409016176310849,33522,1549409015964017345,map,0,2,33.9461799183,-83.3768336283,209.738,0.0001,0.0,0.0,0.0,0.0001,0.0,0.0,0.0,0.0001,2
1549409016272176028,33523,1549409015988667929,map,0,2,33.9461799183,-83.3768336283,209.74,0.0001,0.0,0.0,0.0,0.0001,0.0,0.0,0.0,0.0001,2
1549409016272219036,33524,1549409016035631762,map,0,2,33.9461799183,-83.3768336283,209.74,0.0001,0.0,0.0,0.0,0.0001,0.0,0.0,0.0,0.0001,2
1549409016272255334,33525,1549409016058754262,map,0,2,33.9461799183,-83.3768336283,209.74,0.0001,0.0,0.0,0.0,0.0001,0.0,0.0,0.0,0.0001,2
1549409016272281164,33526,1549409016083740929,map,0,2,33.9461799133,-83.3768336217,209.739,0.0001,0.0,0.0,0.0,0.0001,0.0,0.0,0.0,0.0001,2
1549409016272301305,33527,1549409016109550262,map,0,2,33.9461799133,-83.3768336217,209.739,0.0001,0.0,0.0,0.0,0.0001,0.0,0.0,0.0,0.0001,2
1549409016272324333,33528,1549409016133765262,map,0,2,33.9461799133,-83.3768336217,209.739,0.0001,0.0,0.0,0.0,0.0001,0.0,0.0,0.0,0.0001,2
1549409016272347741,33529,1549409016158778429,map,0,2,33.9461799133,-83.3768336217,209.739,0.0001,0.0,0.0,0.0,0.0001,0.0,0.0,0.0,0.0001,2
1549409016305119629,33530,1549409016183775012,map,0,2,33.9461799067,-83.376833625,209.732,0.0001,0.0,0.0,0.0,0.0001,0.0,0.0,0.0,0.0001,2
1549409016305495652,33531,1549409016208718179,map,0,2,33.9461799067,-83.376833625,209.732,0.0001,0.0,0.0,0.0,0.0001,0.0,0.0,0.0,0.0001,2
1549409016354499939,33532,1549409016233718679,map,0,2,33.9461799067,-83.376833625,209.732,0.0001,0.0,0.0,0.0,0.0001,0.0,0.0,0.0,0.0001,2
1549409016354505511,33533,1549409016258710595,map,0,2,33.9461799067,-83.376833625,209.732,0.0001,0.0,0.0,0.0,0.0001,0.0,0.0,0.0,0.0001,2
1549409016385396917,33534,1549409016283691262,map,0,2,33.9461798983,-83.37683361,209.729,0.0001,0.0,0.0,0.0,0.0001,0.0,0.0,0.0,0.0001,2
1549409016385434182,33535,1549409016308900345,map,0,2,33.9461798983,-83.37683361,209.729,0.0001,0.0,0.0,0.0,0.0001,0.0,0.0,0.0,0.0001,2
1549409016411630160,33536,1549409016333698845,map,0,2,33.9461798983,-83.37683361,209.729,0.0001,0.0,0.0,0.0,0.0001,0.0,0.0,0.0,0.0001,2
1549409016450938206,33537,1549409016358737262,map,0,2,33.9461798983,-83.37683361,209.729,0.0001,0.0,0.0,0.0,0.0001,0.0,0.0,0.0,0.0001,2
1549409016503042789,33538,1549409016383770012,map,0,2,33.9461799017,-83.3768335817,209.728,0.0001,0.0,0.0,0.0,0.0001,0.0,0.0,0.0,0.0001,2
1549409016540277562,33539,1549409016408726595,map,0,2,33.9461799017,-83.3768335817,209.728,0.0001,0.0,0.0,0.0,0.0001,0.0,0.0,0.0,0.0001,2
1549409016540306456,33540,1549409016433706345,map,0,2,33.9461799017,-83.3768335817,209.728,0.0001,0.0,0.0,0.0,0.0001,0.0,0.0,0.0,0.0001,2
1549409016591548227,33541,1549409016458837095,map,0,2,33.9461799017,-83.3768335817,209.728,0.0001,0.0,0.0,0.0,0.0001,0.0,0.0,0.0,0.0001,2
1549409016591560971,33542,1549409016483725845,map,0,2,33.9461799,-83.3768335917,209.731,0.0001,0.0,0.0,0.0,0.0001,0.0,0.0,0.0,0.0001,2
1549409016637559045,33543,1549409016508793762,map,0,2,33.9461799,-83.3768335917,209.731,0.0001,0.0,0.0,0.0,0.0001,0.0,0.0,0.0,0.0001,2
1549409016637571749,33544,1549409016533702429,map,0,2,33.9461799,-83.3768335917,209.731,0.0001,0.0,0.0,0.0,0.0001,0.0,0.0,0.0,0.0001,2
1549409016674436323,33545,1549409016558753179,map,0,2,33.9461799,-83.3768335917,209.731,0.0001,0.0,0.0,0.0,0.0001,0.0,0.0,0.0,0.0001,2
1549409016674448212,33546,1549409016583724595,map,0,2,33.946179905,-83.3768335933,209.73,0.0001,0.0,0.0,0.0,0.0001,0.0,0.0,0.0,0.0001,2
1549409016706850421,33547,1549409016608826345,map,0,2,33.946179905,-83.3768335933,209.73,0.0001,0.0,0.0,0.0,0.0001,0.0,0.0,0.0,0.0001,2
1549409016736798590,33548,1549409016633978428,map,0,2,33.946179905,-83.3768335933,209.73,0.0001,0.0,0.0,0.0,0.0001,0.0,0.0,0.0,0.0001,2
1549409016736865809,33549,1549409016658924928,map,0,2,33.946179905,-83.3768335933,209.73,0.0001,0.0,0.0,0.0,0.0001,0.0,0.0,0.0,0.0001,2
1549409016809984432,33550,1549409016683747928,map,0,2,33.9461798933,-83.3768336117,209.73,0.0001,0.0,0.0,0.0,0.0001,0.0,0.0,0.0,0.0001,2
1549409016809999593,33551,1549409016708701012,map,0,2,33.9461798933,-83.3768336117,209.73,0.0001,0.0,0.0,0.0,0.0001,0.0,0.0,0.0,0.0001,2
1549409016863008456,33552,1549409016734276928,map,0,2,33.9461798933,-83.3768336117,209.73,0.0001,0.0,0.0,0.0,0.0001,0.0,0.0,0.0,0.0001,2
1549409016863022876,33553,1549409016759033595,map,0,2,33.9461798933,-83.3768336117,209.73,0.0001,0.0,0.0,0.0,0.0001,0.0,0.0,0.0,0.0001,2
1549409016918274344,33554,1549409016783741928,map,0,2,33.94617989,-83.376833595,209.728,0.0001,0.0,0.0,0.0,0.0001,0.0,0.0,0.0,0.0001,2
1549409016918457121,33555,1549409016808827928,map,0,2,33.94617989,-83.376833595,209.728,0.0001,0.0,0.0,0.0,0.0001,0.0,0.0,0.0,0.0001,2
1549409016918623189,33556,1549409016833757345,map,0,2,33.94617989,-83.376833595,209.728,0.0001,0.0,0.0,0.0,0.0001,0.0,0.0,0.0,0.0001,2
1549409016970195110,33557,1549409016858979345,map,0,2,33.94617989,-83.376833595,209.728,0.0001,0.0,0.0,0.0,0.0001,0.0,0.0,0.0,0.0001,2
1549409016970207798,33558,1549409016883982595,map,0,2,33.9461798917,-83.3768336017,209.732,0.0001,0.0,0.0,0.0,0.0001,0.0,0.0,0.0,0.0001,2
1549409017002454193,33559,1549409016908761345,map,0,2,33.9461798917,-83.3768336017,209.732,0.0001,0.0,0.0,0.0,0.0001,0.0,0.0,0.0,0.0001,2
1549409017100197851,33560,1549409016933698595,map,0,2,33.9461798917,-83.3768336017,209.732,0.0001,0.0,0.0,0.0,0.0001,0.0,0.0,0.0,0.0001,2
1549409017100271378,33561,1549409016959011262,map,0,2,33.9461798917,-83.3768336017,209.732,0.0001,0.0,0.0,0.0,0.0001,0.0,0.0,0.0,0.0001,2
1549409017100284774,33562,1549409016983759678,map,0,2,33.94617988,-83.3768335967,209.734,0.0001,0.0,0.0,0.0,0.0001,0.0,0.0,0.0,0.0001,2
1549409017100305777,33563,1549409017008757512,map,0,2,33.94617988,-83.3768335967,209.734,0.0001,0.0,0.0,0.0,0.0001,0.0,0.0,0.0,0.0001,2
1549409017169852235,33564,1549409017033789762,map,0,2,33.94617988,-83.3768335967,209.734,0.0001,0.0,0.0,0.0,0.0001,0.0,0.0,0.0,0.0001,2
1549409017169861351,33565,1549409017058820428,map,0,2,33.94617988,-83.3768335967,209.734,0.0001,0.0,0.0,0.0,0.0001,0.0,0.0,0.0,0.0001,2
1549409017169871458,33566,1549409017083764512,map,0,2,33.9461798883,-83.3768336033,209.734,0.0001,0.0,0.0,0.0,0.0001,0.0,0.0,0.0,0.0001,2
1549409017235946438,33567,1549409017108729178,map,0,2,33.9461798883,-83.3768336033,209.734,0.0001,0.0,0.0,0.0,0.0001,0.0,0.0,0.0,0.0001,2
1549409017235964348,33568,1549409017134169678,map,0,2,33.9461798883,-83.3768336033,209.734,0.0001,0.0,0.0,0.0,0.0001,0.0,0.0,0.0,0.0001,2
1549409017281021090,33569,1549409017158852095,map,0,2,33.9461798883,-83.3768336033,209.734,0.0001,0.0,0.0,0.0,0.0001,0.0,0.0,0.0,0.0001,2
1549409017281059337,33570,1549409017183723512,map,0,2,33.9461798967,-83.37683362,209.728,0.0001,0.0,0.0,0.0,0.0001,0.0,0.0,0.0,0.0001,2
1549409017366476591,33571,1549409017209398595,map,0,2,33.9461798967,-83.37683362,209.728,0.0001,0.0,0.0,0.0,0.0001,0.0,0.0,0.0,0.0001,2
1549409017366489894,33572,1549409017233952262,map,0,2,33.9461798967,-83.37683362,209.728,0.0001,0.0,0.0,0.0,0.0001,0.0,0.0,0.0,0.0001,2
1549409017366495593,33573,1549409017258779095,map,0,2,33.9461798967,-83.37683362,209.728,0.0001,0.0,0.0,0.0,0.0001,0.0,0.0,0.0,0.0001,2
1549409017442995529,33574,1549409017284610928,map,0,2,33.9461799083,-83.3768336417,209.726,0.0001,0.0,0.0,0.0,0.0001,0.0,0.0,0.0,0.0001,2
1549409017443196956,33575,1549409017308883345,map,0,2,33.9461799083,-83.3768336417,209.726,0.0001,0.0,0.0,0.0,0.0001,0.0,0.0,0.0,0.0001,2
1549409017443218896,33576,1549409017336912762,map,0,2,33.9461799083,-83.3768336417,209.726,0.0001,0.0,0.0,0.0,0.0001,0.0,0.0,0.0,0.0001,2
1549409017443233264,33577,1549409017358738262,map,0,2,33.9461799083,-83.3768336417,209.726,0.0001,0.0,0.0,0.0,0.0001,0.0,0.0,0.0,0.0001,2
1549409017494059958,33578,1549409017383701012,map,0,2,33.946179895,-83.37683363,209.73,0.0001,0.0,0.0,0.0,0.0001,0.0,0.0,0.0,0.0001,2
1549409017494159910,33579,1549409017410083095,map,0,2,33.946179895,-83.37683363,209.73,0.0001,0.0,0.0,0.0,0.0001,0.0,0.0,0.0,0.0001,2
1549409017596431331,33580,1549409017434645012,map,0,2,33.946179895,-83.37683363,209.73,0.0001,0.0,0.0,0.0,0.0001,0.0,0.0,0.0,0.0001,2
1549409017596526590,33581,1549409017459148262,map,0,2,33.946179895,-83.37683363,209.73,0.0001,0.0,0.0,0.0,0.0001,0.0,0.0,0.0,0.0001,2
1549409017596542777,33582,1549409017483788678,map,0,2,33.94617991,-83.3768336367,209.735,0.0001,0.0,0.0,0.0,0.0001,0.0,0.0,0.0,0.0001,2
1549409017696151861,33583,1549409017512869095,map,0,2,33.94617991,-83.3768336367,209.735,0.0001,0.0,0.0,0.0,0.0001,0.0,0.0,0.0,0.0001,2
1549409017696294548,33584,1549409017533794678,map,0,2,33.94617991,-83.3768336367,209.735,0.0001,0.0,0.0,0.0,0.0001,0.0,0.0,0.0,0.0001,2
1549409017696313386,33585,1549409017558700512,map,0,2,33.9461798967,-83.376833645,209.735,0.0001,0.0,0.0,0.0,0.0001,0.0,0.0,0.0,0.0001,2
1549409017696328786,33586,1549409017583745262,map,0,2,33.9461798967,-83.376833645,209.736,0.0001,0.0,0.0,0.0,0.0001,0.0,0.0,0.0,0.0001,2
1549409017748261939,33587,1549409017611077428,map,0,2,33.9461798967,-83.376833645,209.736,0.0001,0.0,0.0,0.0,0.0001,0.0,0.0,0.0,0.0001,2
1549409017748267799,33588,1549409017633732845,map,0,2,33.9461798967,-83.376833645,209.736,0.0001,0.0,0.0,0.0,0.0001,0.0,0.0,0.0,0.0001,2
1549409017748296256,33589,1549409017659755012,map,0,2,33.9461799133,-83.3768336283,209.736,0.0001,0.0,0.0,0.0,0.0001,0.0,0.0,0.0,0.0001,2
1549409017839898798,33590,1549409017684425595,map,0,2,33.9461799133,-83.37683363,209.731,0.0001,0.0,0.0,0.0,0.0001,0.0,0.0,0.0,0.0001,2
1549409017907938391,33591,1549409017713316595,map,0,2,33.9461799133,-83.37683363,209.731,0.0001,0.0,0.0,0.0,0.0001,0.0,0.0,0.0,0.0001,2
1549409017908036498,33592,1549409017733700845,map,0,2,33.9461799133,-83.37683363,209.731,0.0001,0.0,0.0,0.0,0.0001,0.0,0.0,0.0,0.0001,2
1549409017908084484,33593,1549409017759095678,map,0,2,33.9461799133,-83.3768336383,209.731,0.0001,0.0,0.0,0.0,0.0001,0.0,0.0,0.0,0.0001,2
1549409017908093467,33594,1549409017786813095,map,0,2,33.9461799133,-83.3768336383,209.738,0.0001,0.0,0.0,0.0,0.0001,0.0,0.0,0.0,0.0001,2
1549409017908141595,33595,1549409017811261928,map,0,2,33.9461799133,-83.3768336383,209.738,0.0001,0.0,0.0,0.0,0.0001,0.0,0.0,0.0,0.0001,2
1549409018003302293,33596,1549409017835922012,map,0,2,33.9461799133,-83.3768336383,209.738,0.0001,0.0,0.0,0.0,0.0001,0.0,0.0,0.0,0.0001,2
1549409018003340251,33597,1549409017864818595,map,0,2,33.9461799117,-83.3768336383,209.738,0.0001,0.0,0.0,0.0,0.0001,0.0,0.0,0.0,0.0001,2
1549409018076944794,33598,1549409017885717262,map,0,2,33.9461799117,-83.3768336283,209.732,0.0001,0.0,0.0,0.0,0.0001,0.0,0.0,0.0,0.0001,2
1549409018077028491,33599,1549409017909813678,map,0,2,33.9461799117,-83.3768336283,209.732,0.0001,0.0,0.0,0.0,0.0001,0.0,0.0,0.0,0.0001,2
1549409018077294911,33600,1549409017938497762,map,0,2,33.9461799117,-83.3768336283,209.732,0.0001,0.0,0.0,0.0,0.0001,0.0,0.0,0.0,0.0001,2
1549409018077824234,33601,1549409017959045095,map,0,2,33.9461799167,-83.376833625,209.732,0.0001,0.0,0.0,0.0,0.0001,0.0,0.0,0.0,0.0001,2
1549409018126277091,33602,1549409017992218011,map,0,2,33.9461799167,-83.376833625,209.731,0.0001,0.0,0.0,0.0,0.0001,0.0,0.0,0.0,0.0001,2
1549409018126395026,33603,1549409018016097178,map,0,2,33.9461799167,-83.376833625,209.731,0.0001,0.0,0.0,0.0,0.0001,0.0,0.0,0.0,0.0001,2
1549409018126422043,33604,1549409018036612428,map,0,2,33.9461799167,-83.376833625,209.731,0.0001,0.0,0.0,0.0,0.0001,0.0,0.0,0.0,0.0001,2
1549409018200883115,33605,1549409018065378428,map,0,2,33.9461799033,-83.3768336233,209.731,0.0001,0.0,0.0,0.0,0.0001,0.0,0.0,0.0,0.0001,2
1549409018200905614,33606,1549409018085856428,map,0,2,33.9461799033,-83.3768336233,209.725,0.0001,0.0,0.0,0.0,0.0001,0.0,0.0,0.0,0.0001,2
1549409018200914201,33607,1549409018110656011,map,0,2,33.9461799033,-83.3768336233,209.725,0.0001,0.0,0.0,0.0,0.0001,0.0,0.0,0.0,0.0001,2
1549409018273873931,33608,1549409018139282595,map,0,2,33.9461799033,-83.3768336233,209.725,0.0001,0.0,0.0,0.0,0.0001,0.0,0.0,0.0,0.0001,2
1549409018273909550,33609,1549409018163511678,map,0,2,33.9461799217,-83.3768336217,209.724,0.0001,0.0,0.0,0.0,0.0001,0.0,0.0,0.0,0.0001,2
1549409018349246280,33610,1549409018198930095,map,0,2,33.9461799217,-83.3768336217,209.724,0.0001,0.0,0.0,0.0,0.0001,0.0,0.0,0.0,0.0001,2
1549409018349370844,33611,1549409018241980928,map,0,2,33.9461799217,-83.3768336217,209.724,0.0001,0.0,0.0,0.0,0.0001,0.0,0.0,0.0,0.0001,2
1549409018349395244,33612,1549409018262632095,map,0,2,33.9461798983,-83.3768336217,209.726,0.0001,0.0,0.0,0.0,0.0001,0.0,0.0,0.0,0.0001,2
1549409018446330706,33613,1549409018291896928,map,0,2,33.9461798983,-83.3768336217,209.726,0.0001,0.0,0.0,0.0,0.0001,0.0,0.0,0.0,0.0001,2
1549409018447076609,33614,1549409018311346011,map,0,2,33.9461798983,-83.3768336217,209.726,0.0001,0.0,0.0,0.0,0.0001,0.0,0.0,0.0,0.0001,2
1549409018642347952,33615,1549409018343977345,map,0,2,33.9461798983,-83.3768336217,209.726,0.0001,0.0,0.0,0.0,0.0001,0.0,0.0,0.0,0.0001,2
1549409018642448242,33616,1549409018408859761,map,0,2,33.946179905,-83.3768336117,209.73,0.0001,0.0,0.0,0.0,0.0001,0.0,0.0,0.0,0.0001,2
1549409018642497149,33617,1549409018433699178,map,0,2,33.946179905,-83.3768336117,209.73,0.0001,0.0,0.0,0.0,0.0001,0.0,0.0,0.0,0.0001,2
1549409018789226897,33618,1549409018458694011,map,0,2,33.946179905,-83.3768336117,209.73,0.0001,0.0,0.0,0.0,0.0001,0.0,0.0,0.0,0.0001,2
1549409018789306755,33619,1549409018483693845,map,0,2,33.9461799117,-83.3768336133,209.727,0.0001,0.0,0.0,0.0,0.0001,0.0,0.0,0.0,0.0001,2
1549409018789355848,33620,1549409018508697761,map,0,2,33.9461799117,-83.3768336133,209.727,0.0001,0.0,0.0,0.0,0.0001,0.0,0.0,0.0,0.0001,2
1549409018789396237,33621,1549409018533782011,map,0,2,33.9461799117,-83.3768336133,209.727,0.0001,0.0,0.0,0.0,0.0001,0.0,0.0,0.0,0.0001,2
1549409018789482212,33622,1549409018558758011,map,0,2,33.9461799117,-83.3768336133,209.727,0.0001,0.0,0.0,0.0,0.0001,0.0,0.0,0.0,0.0001,2
1549409018789501377,33623,1549409018583716428,map,0,2,33.9461799233,-83.3768336,209.726,0.0001,0.0,0.0,0.0,0.0001,0.0,0.0,0.0,0.0001,2
1549409018789519600,33624,1549409018608697261,map,0,2,33.9461799233,-83.3768336,209.726,0.0001,0.0,0.0,0.0,0.0001,0.0,0.0,0.0,0.0001,2
1549409018789613749,33625,1549409018634139511,map,0,2,33.9461799233,-83.3768336,209.726,0.0001,0.0,0.0,0.0,0.0001,0.0,0.0,0.0,0.0001,2
1549409018789669841,33626,1549409018659303595,map,0,2,33.9461799233,-83.3768336,209.726,0.0001,0.0,0.0,0.0,0.0001,0.0,0.0,0.0,0.0001,2
1549409018789676044,33627,1549409018683850595,map,0,2,33.9461799433,-83.3768336333,209.727,0.0001,0.0,0.0,0.0,0.0001,0.0,0.0,0.0,0.0001,2
1549409018861741201,33628,1549409018710614261,map,0,2,33.9461799433,-83.3768336333,209.727,0.0001,0.0,0.0,0.0,0.0001,0.0,0.0,0.0,0.0001,2
1549409018861792766,33629,1549409018733792261,map,0,2,33.9461799433,-83.3768336333,209.727,0.0001,0.0,0.0,0.0,0.0001,0.0,0.0,0.0,0.0001,2
1549409018949087334,33630,1549409018758727761,map,0,2,33.9461799433,-83.3768336333,209.727,0.0001,0.0,0.0,0.0,0.0001,0.0,0.0,0.0,0.0001,2
1549409018949153093,33631,1549409018783742761,map,0,2,33.94617993,-83.37683361,209.725,0.0001,0.0,0.0,0.0,0.0001,0.0,0.0,0.0,0.0001,2
1549409018949193858,33632,1549409018808739428,map,0,2,33.94617993,-83.37683361,209.725,0.0001,0.0,0.0,0.0,0.0001,0.0,0.0,0.0,0.0001,2
1549409019099938674,33633,1549409018833868095,map,0,2,33.94617993,-83.37683361,209.725,0.0001,0.0,0.0,0.0,0.0001,0.0,0.0,0.0,0.0001,2
1549409019099949775,33634,1549409018859042428,map,0,2,33.94617993,-83.37683361,209.725,0.0001,0.0,0.0,0.0,0.0001,0.0,0.0,0.0,0.0001,2
1549409019100061699,33635,1549409018883753178,map,0,2,33.9461799183,-83.3768336067,209.734,0.0001,0.0,0.0,0.0,0.0001,0.0,0.0,0.0,0.0001,2
1549409019100074393,33636,1549409018908774511,map,0,2,33.9461799183,-83.3768336067,209.734,0.0001,0.0,0.0,0.0,0.0001,0.0,0.0,0.0,0.0001,2
1549409019100099571,33637,1549409018933761095,map,0,2,33.9461799183,-83.3768336067,209.734,0.0001,0.0,0.0,0.0,0.0001,0.0,0.0,0.0,0.0001,2
1549409019100105958,33638,1549409018958838011,map,0,2,33.9461799183,-83.3768336067,209.734,0.0001,0.0,0.0,0.0,0.0001,0.0,0.0,0.0,0.0001,2
1549409019100123522,33639,1549409018984392678,map,0,2,33.946179925,-83.37683361,209.728,0.0001,0.0,0.0,0.0,0.0001,0.0,0.0,0.0,0.0001,2
1549409019191042872,33640,1549409019008812595,map,0,2,33.946179925,-83.37683361,209.728,0.0001,0.0,0.0,0.0,0.0001,0.0,0.0,0.0,0.0001,2
1549409019191059507,33641,1549409019033699595,map,0,2,33.946179925,-83.37683361,209.728,0.0001,0.0,0.0,0.0,0.0001,0.0,0.0,0.0,0.0001,2
1549409019191067624,33642,1549409019058697511,map,0,2,33.946179925,-83.37683361,209.728,0.0001,0.0,0.0,0.0,0.0001,0.0,0.0,0.0,0.0001,2
1549409019288252785,33643,1549409019083741928,map,0,2,33.946179925,-83.3768336217,209.732,0.0001,0.0,0.0,0.0,0.0001,0.0,0.0,0.0,0.0001,2
1549409019288503535,33644,1549409019110485511,map,0,2,33.946179925,-83.3768336217,209.732,0.0001,0.0,0.0,0.0,0.0001,0.0,0.0,0.0,0.0001,2
1549409019288541953,33645,1549409019133966595,map,0,2,33.946179925,-83.3768336217,209.732,0.0001,0.0,0.0,0.0,0.0001,0.0,0.0,0.0,0.0001,2
1549409019288559904,33646,1549409019158841511,map,0,2,33.946179925,-83.3768336217,209.732,0.0001,0.0,0.0,0.0,0.0001,0.0,0.0,0.0,0.0001,2
1549409019288972925,33647,1549409019183878928,map,0,2,33.946179925,-83.37683362,209.729,0.0001,0.0,0.0,0.0,0.0001,0.0,0.0,0.0,0.0001,2
1549409019487448542,33648,1549409019208871261,map,0,2,33.946179925,-83.37683362,209.729,0.0001,0.0,0.0,0.0,0.0001,0.0,0.0,0.0,0.0001,2
1549409019487456353,33649,1549409019233788845,map,0,2,33.946179925,-83.37683362,209.729,0.0001,0.0,0.0,0.0,0.0001,0.0,0.0,0.0,0.0001,2
1549409019487462918,33650,1549409019258723345,map,0,2,33.946179925,-83.37683362,209.729,0.0001,0.0,0.0,0.0,0.0001,0.0,0.0,0.0,0.0001,2
1549409019487468803,33651,1549409019283835011,map,0,2,33.946179895,-83.37683363,209.737,0.0001,0.0,0.0,0.0,0.0001,0.0,0.0,0.0,0.0001,2
1549409019487473957,33652,1549409019308844261,map,0,2,33.946179895,-83.37683363,209.737,0.0001,0.0,0.0,0.0,0.0001,0.0,0.0,0.0,0.0001,2
1549409019487493548,33653,1549409019333702345,map,0,2,33.946179895,-83.37683363,209.737,0.0001,0.0,0.0,0.0,0.0001,0.0,0.0,0.0,0.0001,2
1549409019654625399,33654,1549409019358748095,map,0,2,33.946179895,-83.37683363,209.737,0.0001,0.0,0.0,0.0,0.0001,0.0,0.0,0.0,0.0001,2
1549409019655744404,33655,1549409019383986761,map,0,2,33.9461799167,-83.3768336233,209.732,0.0001,0.0,0.0,0.0,0.0001,0.0,0.0,0.0,0.0001,2
1549409019655779339,33656,1549409019408989094,map,0,2,33.9461799167,-83.3768336233,209.732,0.0001,0.0,0.0,0.0,0.0001,0.0,0.0,0.0,0.0001,2
1549409019655795797,33657,1549409019433716011,map,0,2,33.9461799167,-83.3768336233,209.732,0.0001,0.0,0.0,0.0,0.0001,0.0,0.0,0.0,0.0001,2
1549409019656768200,33658,1549409019458692428,map,0,2,33.9461799167,-83.3768336233,209.732,0.0001,0.0,0.0,0.0,0.0001,0.0,0.0,0.0,0.0001,2
1549409019656794079,33659,1549409019483912011,map,0,2,33.9461799083,-83.3768336267,209.733,0.0001,0.0,0.0,0.0,0.0001,0.0,0.0,0.0,0.0001,2
1549409019795849064,33660,1549409019510876511,map,0,2,33.9461799083,-83.3768336267,209.733,0.0001,0.0,0.0,0.0,0.0001,0.0,0.0,0.0,0.0001,2
1549409019795959417,33661,1549409019535721344,map,0,2,33.9461799083,-83.3768336267,209.733,0.0001,0.0,0.0,0.0,0.0001,0.0,0.0,0.0,0.0001,2
1549409019795977383,33662,1549409019558755844,map,0,2,33.9461799083,-83.3768336267,209.733,0.0001,0.0,0.0,0.0,0.0001,0.0,0.0,0.0,0.0001,2
1549409019798426136,33663,1549409019583706011,map,0,2,33.9461798933,-83.3768336333,209.728,0.0001,0.0,0.0,0.0,0.0001,0.0,0.0,0.0,0.0001,2
1549409019798457958,33664,1549409019609669678,map,0,2,33.9461798933,-83.3768336333,209.728,0.0001,0.0,0.0,0.0,0.0001,0.0,0.0,0.0,0.0001,2
1549409019798622210,33665,1549409019637521261,map,0,2,33.9461798933,-83.3768336333,209.728,0.0001,0.0,0.0,0.0,0.0001,0.0,0.0,0.0,0.0001,2
1549409019798700980,33666,1549409019658705511,map,0,2,33.9461798933,-83.3768336333,209.728,0.0001,0.0,0.0,0.0,0.0001,0.0,0.0,0.0,0.0001,2
1549409019798721793,33667,1549409019683739011,map,0,2,33.9461798867,-83.3768336467,209.731,0.0001,0.0,0.0,0.0,0.0001,0.0,0.0,0.0,0.0001,2
1549409019889822628,33668,1549409019711816261,map,0,2,33.9461798867,-83.3768336467,209.731,0.0001,0.0,0.0,0.0,0.0001,0.0,0.0,0.0,0.0001,2
1549409019889981708,33669,1549409019736453511,map,0,2,33.9461798867,-83.3768336467,209.731,0.0001,0.0,0.0,0.0,0.0001,0.0,0.0,0.0,0.0001,2
1549409019890083677,33670,1549409019759029428,map,0,2,33.946179905,-83.3768336467,209.731,0.0001,0.0,0.0,0.0,0.0001,0.0,0.0,0.0,0.0001,2
1549409019890183676,33671,1549409019783880178,map,0,2,33.946179905,-83.3768336317,209.731,0.0001,0.0,0.0,0.0,0.0001,0.0,0.0,0.0,0.0001,2
1549409019890314536,33672,1549409019810903761,map,0,2,33.946179905,-83.3768336317,209.731,0.0001,0.0,0.0,0.0,0.0001,0.0,0.0,0.0,0.0001,2
1549409019922937599,33673,1549409019833695344,map,0,2,33.946179905,-83.3768336317,209.731,0.0001,0.0,0.0,0.0,0.0001,0.0,0.0,0.0,0.0001,2
1549409019960513209,33674,1549409019862920178,map,0,2,33.9461798983,-83.3768336417,209.731,0.0001,0.0,0.0,0.0,0.0001,0.0,0.0,0.0,0.0001,2
1549409020025170847,33675,1549409019885068094,map,0,2,33.9461798983,-83.3768336417,209.73,0.0001,0.0,0.0,0.0,0.0001,0.0,0.0,0.0,0.0001,2
1549409020025213365,33676,1549409019912574428,map,0,2,33.9461798983,-83.3768336417,209.73,0.0001,0.0,0.0,0.0,0.0001,0.0,0.0,0.0,0.0001,2
1549409020025247879,33677,1549409019933708511,map,0,2,33.9461798983,-83.3768336417,209.73,0.0001,0.0,0.0,0.0,0.0001,0.0,0.0,0.0,0.0001,2
1549409020061395831,33678,1549409019958744094,map,0,2,33.9461798983,-83.3768336417,209.73,0.0001,0.0,0.0,0.0,0.0001,0.0,0.0,0.0,0.0001,2
1549409020061434685,33679,1549409019983691428,map,0,2,33.946179905,-83.37683365,209.736,0.0001,0.0,0.0,0.0,0.0001,0.0,0.0,0.0,0.0001,2
1549409020104089757,33680,1549409020011247344,map,0,2,33.946179905,-83.37683365,209.736,0.0001,0.0,0.0,0.0,0.0001,0.0,0.0,0.0,0.0001,2
1549409020135310217,33681,1549409020035413678,map,0,2,33.946179905,-83.37683365,209.736,0.0001,0.0,0.0,0.0,0.0001,0.0,0.0,0.0,0.0001,2
1549409020196015045,33682,1549409020060094594,map,0,2,33.9461799,-83.376833645,209.736,0.0001,0.0,0.0,0.0,0.0001,0.0,0.0,0.0,0.0001,2
1549409020196120331,33683,1549409020084739594,map,0,2,33.9461799,-83.376833645,209.735,0.0001,0.0,0.0,0.0,0.0001,0.0,0.0,0.0,0.0001,2
1549409020231910958,33684,1549409020109400428,map,0,2,33.9461799,-83.376833645,209.735,0.0001,0.0,0.0,0.0,0.0001,0.0,0.0,0.0,0.0001,2
1549409020231945587,33685,1549409020133909178,map,0,2,33.9461799,-83.376833645,209.735,0.0001,0.0,0.0,0.0,0.0001,0.0,0.0,0.0,0.0001,2
1549409020264797803,33686,1549409020162424178,map,0,2,33.94617989,-83.3768336567,209.73,0.0001,0.0,0.0,0.0,0.0001,0.0,0.0,0.0,0.0001,2
1549409020341247317,33687,1549409020187570928,map,0,2,33.94617989,-83.3768336567,209.73,0.0001,0.0,0.0,0.0,0.0001,0.0,0.0,0.0,0.0001,2
1549409020341263192,33688,1549409020215652761,map,0,2,33.94617989,-83.3768336567,209.73,0.0001,0.0,0.0,0.0,0.0001,0.0,0.0,0.0,0.0001,2
1549409020341338942,33689,1549409020236148094,map,0,2,33.94617989,-83.3768336567,209.73,0.0001,0.0,0.0,0.0,0.0001,0.0,0.0,0.0,0.0001,2
1549409020452809217,33690,1549409020264873678,map,0,2,33.94617987,-83.3768336533,209.73,0.0001,0.0,0.0,0.0,0.0001,0.0,0.0,0.0,0.0001,2
1549409020452947374,33691,1549409020285449094,map,0,2,33.94617987,-83.3768336533,209.729,0.0001,0.0,0.0,0.0,0.0001,0.0,0.0,0.0,0.0001,2
1549409020452974240,33692,1549409020310049511,map,0,2,33.94617987,-83.3768336533,209.729,0.0001,0.0,0.0,0.0,0.0001,0.0,0.0,0.0,0.0001,2
1549409020452987323,33693,1549409020339653511,map,0,2,33.94617987,-83.3768336533,209.729,0.0001,0.0,0.0,0.0,0.0001,0.0,0.0,0.0,0.0001,2
1549409020453113795,33694,1549409020363082011,map,0,2,33.9461798883,-83.3768336467,209.728,0.0001,0.0,0.0,0.0,0.0001,0.0,0.0,0.0,0.0001,2
1549409020477190483,33695,1549409020391810678,map,0,2,33.9461798883,-83.3768336467,209.728,0.0001,0.0,0.0,0.0,0.0001,0.0,0.0,0.0,0.0001,2
1549409020525801874,33696,1549409020416956761,map,0,2,33.9461798883,-83.3768336467,209.728,0.0001,0.0,0.0,0.0,0.0001,0.0,0.0,0.0,0.0001,2
1549409020525851055,33697,1549409020437208094,map,0,2,33.9461798883,-83.3768336467,209.728,0.0001,0.0,0.0,0.0,0.0001,0.0,0.0,0.0,0.0001,2
1549409020572125361,33698,1549409020465690428,map,0,2,33.9461798967,-83.3768336633,209.728,0.0001,0.0,0.0,0.0,0.0001,0.0,0.0,0.0,0.0001,2
1549409020572218154,33699,1549409020486176428,map,0,2,33.9461798967,-83.3768336517,209.727,0.0001,0.0,0.0,0.0,0.0001,0.0,0.0,0.0,0.0001,2
1549409020616953994,33700,1549409020510925011,map,0,2,33.9461798967,-83.3768336517,209.727,0.0001,0.0,0.0,0.0,0.0001,0.0,0.0,0.0,0.0001,2
1549409020673609939,33701,1549409020543407761,map,0,2,33.9461798967,-83.3768336517,209.727,0.0001,0.0,0.0,0.0,0.0001,0.0,0.0,0.0,0.0001,2
1549409020673651154,33702,1549409020563827428,map,0,2,33.94617988,-83.3768336383,209.729,0.0001,0.0,0.0,0.0,0.0001,0.0,0.0,0.0,0.0001,2
1549409020726595605,33703,1549409020608796761,map,0,2,33.94617988,-83.3768336383,209.729,0.0001,0.0,0.0,0.0,0.0001,0.0,0.0,0.0,0.0001,2
1549409020726623412,33704,1549409020633810594,map,0,2,33.94617988,-83.3768336383,209.729,0.0001,0.0,0.0,0.0,0.0001,0.0,0.0,0.0,0.0001,2
1549409020769901209,33705,1549409020658862594,map,0,2,33.94617988,-83.3768336383,209.729,0.0001,0.0,0.0,0.0,0.0001,0.0,0.0,0.0,0.0001,2
1549409020769994413,33706,1549409020683713094,map,0,2,33.9461798967,-83.3768336483,209.73,0.0001,0.0,0.0,0.0,0.0001,0.0,0.0,0.0,0.0001,2
1549409020835158759,33707,1549409020708705928,map,0,2,33.9461798967,-83.3768336483,209.73,0.0001,0.0,0.0,0.0,0.0001,0.0,0.0,0.0,0.0001,2
1549409020894693815,33708,1549409020733805594,map,0,2,33.9461798967,-83.3768336483,209.73,0.0001,0.0,0.0,0.0,0.0001,0.0,0.0,0.0,0.0001,2
1549409020894841005,33709,1549409020758731261,map,0,2,33.9461798967,-83.3768336483,209.73,0.0001,0.0,0.0,0.0,0.0001,0.0,0.0,0.0,0.0001,2
1549409020894858315,33710,1549409020783726261,map,0,2,33.9461798983,-83.3768336667,209.73,0.0001,0.0,0.0,0.0,0.0001,0.0,0.0,0.0,0.0001,2
1549409020894871024,33711,1549409020808749261,map,0,2,33.9461798983,-83.3768336667,209.73,0.0001,0.0,0.0,0.0,0.0001,0.0,0.0,0.0,0.0001,2
1549409020963999056,33712,1549409020833923594,map,0,2,33.9461798983,-83.3768336667,209.73,0.0001,0.0,0.0,0.0,0.0001,0.0,0.0,0.0,0.0001,2
1549409020964131285,33713,1549409020859952927,map,0,2,33.9461798983,-83.3768336667,209.73,0.0001,0.0,0.0,0.0,0.0001,0.0,0.0,0.0,0.0001,2
1549409021036476342,33714,1549409020883939927,map,0,2,33.9461798983,-83.376833655,209.733,0.0001,0.0,0.0,0.0,0.0001,0.0,0.0,0.0,0.0001,2
1549409021036491039,33715,1549409020908998511,map,0,2,33.9461798983,-83.376833655,209.733,0.0001,0.0,0.0,0.0,0.0001,0.0,0.0,0.0,0.0001,2
1549409021134256702,33716,1549409020933762094,map,0,2,33.9461798983,-83.376833655,209.733,0.0001,0.0,0.0,0.0,0.0001,0.0,0.0,0.0,0.0001,2
1549409021134359372,33717,1549409020958719094,map,0,2,33.9461798983,-83.376833655,209.733,0.0001,0.0,0.0,0.0,0.0001,0.0,0.0,0.0,0.0001,2
1549409021135256550,33718,1549409020983714094,map,0,2,33.946179905,-83.3768336633,209.729,0.0001,0.0,0.0,0.0,0.0001,0.0,0.0,0.0,0.0001,2
1549409021135346404,33719,1549409021008736094,map,0,2,33.946179905,-83.3768336633,209.729,0.0001,0.0,0.0,0.0,0.0001,0.0,0.0,0.0,0.0001,2
1549409021183783217,33720,1549409021033744594,map,0,2,33.946179905,-83.3768336633,209.729,0.0001,0.0,0.0,0.0,0.0001,0.0,0.0,0.0,0.0001,2
1549409021183818771,33721,1549409021058822094,map,0,2,33.946179905,-83.3768336633,209.729,0.0001,0.0,0.0,0.0,0.0001,0.0,0.0,0.0,0.0001,2
1549409021183972875,33722,1549409021083697094,map,0,2,33.9461798933,-83.3768336633,209.731,0.0001,0.0,0.0,0.0,0.0001,0.0,0.0,0.0,0.0001,2
1549409021245215757,33723,1549409021108733511,map,0,2,33.9461798933,-83.3768336633,209.731,0.0001,0.0,0.0,0.0,0.0001,0.0,0.0,0.0,0.0001,2
1549409021303701644,33724,1549409021133885261,map,0,2,33.9461798933,-83.3768336633,209.731,0.0001,0.0,0.0,0.0,0.0001,0.0,0.0,0.0,0.0001,2
1549409021303717918,33725,1549409021158711927,map,0,2,33.9461798933,-83.3768336633,209.731,0.0001,0.0,0.0,0.0,0.0001,0.0,0.0,0.0,0.0001,2
1549409021303725057,33726,1549409021183749427,map,0,2,33.9461799,-83.37683365,209.727,0.0001,0.0,0.0,0.0,0.0001,0.0,0.0,0.0,0.0001,2
1549409021385070950,33727,1549409021208702511,map,0,2,33.9461799,-83.37683365,209.727,0.0001,0.0,0.0,0.0,0.0001,0.0,0.0,0.0,0.0001,2
1549409021385244378,33728,1549409021233753511,map,0,2,33.9461799,-83.37683365,209.727,0.0001,0.0,0.0,0.0,0.0001,0.0,0.0,0.0,0.0001,2
1549409021385264068,33729,1549409021258995261,map,0,2,33.9461799,-83.37683365,209.727,0.0001,0.0,0.0,0.0,0.0001,0.0,0.0,0.0,0.0001,2
1549409021439398925,33730,1549409021288094511,map,0,2,33.9461799117,-83.37683366,209.733,0.0001,0.0,0.0,0.0,0.0001,0.0,0.0,0.0,0.0001,2
1549409021439437050,33731,1549409021308711761,map,0,2,33.9461799117,-83.37683366,209.733,0.0001,0.0,0.0,0.0,0.0001,0.0,0.0,0.0,0.0001,2
1549409021439450802,33732,1549409021333730761,map,0,2,33.9461799117,-83.37683366,209.733,0.0001,0.0,0.0,0.0,0.0001,0.0,0.0,0.0,0.0001,2
1549409021476083051,33733,1549409021364254094,map,0,2,33.9461799117,-83.37683366,209.733,0.0001,0.0,0.0,0.0,0.0001,0.0,0.0,0.0,0.0001,2
1549409021476100017,33734,1549409021384703094,map,0,2,33.9461799117,-83.37683366,209.733,0.0001,0.0,0.0,0.0,0.0001,0.0,0.0,0.0,0.0001,2
1549409021521157627,33735,1549409021409353261,map,0,2,33.9461799117,-83.37683366,209.733,0.0001,0.0,0.0,0.0,0.0001,0.0,0.0,0.0,0.0001,2
1549409021574581045,33736,1549409021437683594,map,0,2,33.9461799117,-83.37683366,209.733,0.0001,0.0,0.0,0.0,0.0001,0.0,0.0,0.0,0.0001,2
1549409021574602749,33737,1549409021458701177,map,0,2,33.9461799117,-83.37683366,209.733,0.0001,0.0,0.0,0.0,0.0001,0.0,0.0,0.0,0.0001,2
1549409021575007954,33738,1549409021483744927,map,0,2,33.9461799283,-83.37683363,209.73,0.0001,0.0,0.0,0.0,0.0001,0.0,0.0,0.0,0.0001,2
1549409021631780278,33739,1549409021508709594,map,0,2,33.9461799283,-83.37683363,209.73,0.0001,0.0,0.0,0.0,0.0001,0.0,0.0,0.0,0.0001,2
1549409021666849845,33740,1549409021533767677,map,0,2,33.9461799283,-83.37683363,209.73,0.0001,0.0,0.0,0.0,0.0001,0.0,0.0,0.0,0.0001,2
1549409021666996243,33741,1549409021558761177,map,0,2,33.9461799283,-83.37683363,209.73,0.0001,0.0,0.0,0.0,0.0001,0.0,0.0,0.0,0.0001,2
1549409021667032170,33742,1549409021583784511,map,0,2,33.946179935,-83.37683364,209.727,0.0001,0.0,0.0,0.0,0.0001,0.0,0.0,0.0,0.0001,2
1549409021728935903,33743,1549409021608769594,map,0,2,33.946179935,-83.37683364,209.727,0.0001,0.0,0.0,0.0,0.0001,0.0,0.0,0.0,0.0001,2
1549409021815782917,33744,1549409021633746344,map,0,2,33.946179935,-83.37683364,209.727,0.0001,0.0,0.0,0.0,0.0001,0.0,0.0,0.0,0.0001,2
1549409021815836335,33745,1549409021658753011,map,0,2,33.946179935,-83.37683364,209.727,0.0001,0.0,0.0,0.0,0.0001,0.0,0.0,0.0,0.0001,2
1549409021815863054,33746,1549409021683762177,map,0,2,33.9461799283,-83.3768336267,209.73,0.0001,0.0,0.0,0.0,0.0001,0.0,0.0,0.0,0.0001,2
1549409021815875843,33747,1549409021708758761,map,0,2,33.9461799283,-83.3768336267,209.73,0.0001,0.0,0.0,0.0,0.0001,0.0,0.0,0.0,0.0001,2
1549409021912619545,33748,1549409021733699511,map,0,2,33.9461799283,-83.3768336267,209.73,0.0001,0.0,0.0,0.0,0.0001,0.0,0.0,0.0,0.0001,2
1549409021912779392,33749,1549409021759125594,map,0,2,33.9461799283,-83.3768336267,209.73,0.0001,0.0,0.0,0.0,0.0001,0.0,0.0,0.0,0.0001,2
1549409021982128703,33750,1549409021783694261,map,0,2,33.9461799467,-83.376833645,209.727,0.0001,0.0,0.0,0.0,0.0001,0.0,0.0,0.0,0.0001,2
1549409021982169546,33751,1549409021809059511,map,0,2,33.9461799467,-83.376833645,209.727,0.0001,0.0,0.0,0.0,0.0001,0.0,0.0,0.0,0.0001,2
1549409021982221044,33752,1549409021833776927,map,0,2,33.9461799467,-83.376833645,209.727,0.0001,0.0,0.0,0.0,0.0001,0.0,0.0,0.0,0.0001,2
1549409021982246728,33753,1549409021858753677,map,0,2,33.9461799467,-83.376833645,209.727,0.0001,0.0,0.0,0.0,0.0001,0.0,0.0,0.0,0.0001,2
1549409021982266709,33754,1549409021884026344,map,0,2,33.9461799283,-83.3768336217,209.73,0.0001,0.0,0.0,0.0,0.0001,0.0,0.0,0.0,0.0001,2
1549409022102065734,33755,1549409021911753177,map,0,2,33.9461799283,-83.3768336217,209.73,0.0001,0.0,0.0,0.0,0.0001,0.0,0.0,0.0,0.0001,2
1549409022102354951,33756,1549409021937396011,map,0,2,33.9461799283,-83.3768336217,209.73,0.0001,0.0,0.0,0.0,0.0001,0.0,0.0,0.0,0.0001,2
1549409022249341489,33757,1549409021958894094,map,0,2,33.9461799283,-83.3768336217,209.73,0.0001,0.0,0.0,0.0,0.0001,0.0,0.0,0.0,0.0001,2
1549409022249420747,33758,1549409021984059594,map,0,2,33.946179925,-83.376833645,209.734,0.0001,0.0,0.0,0.0,0.0001,0.0,0.0,0.0,0.0001,2
1549409022249494131,33759,1549409022009885094,map,0,2,33.946179925,-83.376833645,209.734,0.0001,0.0,0.0,0.0,0.0001,0.0,0.0,0.0,0.0001,2
1549409022249570105,33760,1549409022033753011,map,0,2,33.946179925,-83.376833645,209.734,0.0001,0.0,0.0,0.0,0.0001,0.0,0.0,0.0,0.0001,2
1549409022249639007,33761,1549409022058992511,map,0,2,33.9461799267,-83.376833645,209.734,0.0001,0.0,0.0,0.0,0.0001,0.0,0.0,0.0,0.0001,2
1549409022249720121,33762,1549409022083738427,map,0,2,33.9461799267,-83.3768336333,209.734,0.0001,0.0,0.0,0.0,0.0001,0.0,0.0,0.0,0.0001,2
1549409022348746053,33763,1549409022112168011,map,0,2,33.9461799267,-83.3768336333,209.734,0.0001,0.0,0.0,0.0,0.0001,0.0,0.0,0.0,0.0001,2
1549409022348790310,33764,1549409022133688927,map,0,2,33.9461799267,-83.3768336333,209.734,0.0001,0.0,0.0,0.0,0.0001,0.0,0.0,0.0,0.0001,2
1549409022348810195,33765,1549409022158949677,map,0,2,33.9461799033,-83.3768336217,209.734,0.0001,0.0,0.0,0.0,0.0001,0.0,0.0,0.0,0.0001,2
1549409022348827746,33766,1549409022183955344,map,0,2,33.9461799033,-83.3768336217,209.729,0.0001,0.0,0.0,0.0,0.0001,0.0,0.0,0.0,0.0001,2
1549409022348841507,33767,1549409022210635510,map,0,2,33.9461799033,-83.3768336217,209.729,0.0001,0.0,0.0,0.0,0.0001,0.0,0.0,0.0,0.0001,2
1549409022444791127,33768,1549409022239099260,map,0,2,33.9461799033,-83.3768336217,209.729,0.0001,0.0,0.0,0.0,0.0001,0.0,0.0,0.0,0.0001,2
1549409022444814684,33769,1549409022259874260,map,0,2,33.9461798933,-83.376833645,209.729,0.0001,0.0,0.0,0.0,0.0001,0.0,0.0,0.0,0.0001,2
1549409022444825830,33770,1549409022284218094,map,0,2,33.9461798933,-83.376833645,209.728,0.0001,0.0,0.0,0.0,0.0001,0.0,0.0,0.0,0.0001,2
1549409022444834461,33771,1549409022312914260,map,0,2,33.9461798933,-83.376833645,209.728,0.0001,0.0,0.0,0.0,0.0001,0.0,0.0,0.0,0.0001,2
1549409022444844553,33772,1549409022333949177,map,0,2,33.9461798933,-83.376833645,209.728,0.0001,0.0,0.0,0.0,0.0001,0.0,0.0,0.0,0.0001,2
1549409022556029270,33773,1549409022365175260,map,0,2,33.9461798967,-83.3768336267,209.728,0.0001,0.0,0.0,0.0,0.0001,0.0,0.0,0.0,0.0001,2
1549409022556077711,33774,1549409022386491677,map,0,2,33.9461798967,-83.3768336267,209.73,0.0001,0.0,0.0,0.0,0.0001,0.0,0.0,0.0,0.0001,2
1549409022556529246,33775,1549409022411019510,map,0,2,33.9461798967,-83.3768336267,209.73,0.0001,0.0,0.0,0.0,0.0001,0.0,0.0,0.0,0.0001,2
1549409022556579085,33776,1549409022435690094,map,0,2,33.9461798967,-83.3768336267,209.73,0.0001,0.0,0.0,0.0,0.0001,0.0,0.0,0.0,0.0001,2
1549409022610439961,33777,1549409022460501760,map,0,2,33.946179905,-83.3768336217,209.731,0.0001,0.0,0.0,0.0,0.0001,0.0,0.0,0.0,0.0001,2
1549409022610541343,33778,1549409022488988594,map,0,2,33.946179905,-83.3768336217,209.731,0.0001,0.0,0.0,0.0,0.0001,0.0,0.0,0.0,0.0001,2
1549409022610591338,33779,1549409022513608427,map,0,2,33.946179905,-83.3768336217,209.731,0.0001,0.0,0.0,0.0,0.0001,0.0,0.0,0.0,0.0001,2
1549409022715658255,33780,1549409022534151427,map,0,2,33.946179905,-83.3768336217,209.731,0.0001,0.0,0.0,0.0,0.0001,0.0,0.0,0.0,0.0001,2
1549409022716220975,33781,1549409022563005427,map,0,2,33.9461798983,-83.3768336017,209.731,0.0001,0.0,0.0,0.0,0.0001,0.0,0.0,0.0,0.0001,2
1549409022821969113,33782,1549409022587311427,map,0,2,33.9461798983,-83.3768336017,209.731,0.0001,0.0,0.0,0.0,0.0001,0.0,0.0,0.0,0.0001,2
1549409022821981660,33783,1549409022611913927,map,0,2,33.9461798983,-83.3768336017,209.731,0.0001,0.0,0.0,0.0,0.0001,0.0,0.0,0.0,0.0001,2
1549409022821991081,33784,1549409022640633844,map,0,2,33.9461798983,-83.3768336017,209.731,0.0001,0.0,0.0,0.0,0.0001,0.0,0.0,0.0,0.0001,2
1549409022822061264,33785,1549409022661558177,map,0,2,33.9461799,-83.37683362,209.735,0.0001,0.0,0.0,0.0,0.0001,0.0,0.0,0.0,0.0001,2
1549409022970458294,33786,1549409022696276677,map,0,2,33.9461799,-83.37683362,209.735,0.0001,0.0,0.0,0.0,0.0001,0.0,0.0,0.0,0.0001,2
1549409022970601880,33787,1549409022710829010,map,0,2,33.9461799,-83.37683362,209.735,0.0001,0.0,0.0,0.0,0.0001,0.0,0.0,0.0,0.0001,2
1549409022970616956,33788,1549409022739093427,map,0,2,33.9461799,-83.37683362,209.735,0.0001,0.0,0.0,0.0,0.0001,0.0,0.0,0.0,0.0001,2
1549409022970622837,33789,1549409022763402760,map,0,2,33.9461798967,-83.3768336333,209.733,0.0001,0.0,0.0,0.0,0.0001,0.0,0.0,0.0,0.0001,2
1549409023231967583,33790,1549409022792075094,map,0,2,33.9461798967,-83.3768336333,209.733,0.0001,0.0,0.0,0.0,0.0001,0.0,0.0,0.0,0.0001,2
1549409023232232898,33791,1549409022812612510,map,0,2,33.9461798967,-83.3768336333,209.733,0.0001,0.0,0.0,0.0,0.0001,0.0,0.0,0.0,0.0001,2
1549409023232447792,33792,1549409022841843177,map,0,2,33.9461798967,-83.3768336333,209.733,0.0001,0.0,0.0,0.0,0.0001,0.0,0.0,0.0,0.0001,2
1549409023232494629,33793,1549409022862140260,map,0,2,33.9461799067,-83.376833615,209.732,0.0001,0.0,0.0,0.0,0.0001,0.0,0.0,0.0,0.0001,2
1549409023232730229,33794,1549409022890784510,map,0,2,33.9461799067,-83.376833615,209.732,0.0001,0.0,0.0,0.0,0.0001,0.0,0.0,0.0,0.0001,2
1549409023232918738,33795,1549409022915051260,map,0,2,33.9461799067,-83.376833615,209.732,0.0001,0.0,0.0,0.0,0.0001,0.0,0.0,0.0,0.0001,2
1549409023232972078,33796,1549409022943698260,map,0,2,33.9461799067,-83.376833615,209.732,0.0001,0.0,0.0,0.0,0.0001,0.0,0.0,0.0,0.0001,2
1549409023233017151,33797,1549409022983695844,map,0,2,33.94617991,-83.3768336233,209.732,0.0001,0.0,0.0,0.0,0.0001,0.0,0.0,0.0,0.0001,2
