%time,field.header.seq,field.header.stamp,field.header.frame_id,field.child_frame_id,field.pose.pose.position.x,field.pose.pose.position.y,field.pose.pose.position.z,field.pose.pose.orientation.x,field.pose.pose.orientation.y,field.pose.pose.orientation.z,field.pose.pose.orientation.w,field.pose.covariance0,field.pose.covariance1,field.pose.covariance2,field.pose.covariance3,field.pose.covariance4,field.pose.covariance5,field.pose.covariance6,field.pose.covariance7,field.pose.covariance8,field.pose.covariance9,field.pose.covariance10,field.pose.covariance11,field.pose.covariance12,field.pose.covariance13,field.pose.covariance14,field.pose.covariance15,field.pose.covariance16,field.pose.covariance17,field.pose.covariance18,field.pose.covariance19,field.pose.covariance20,field.pose.covariance21,field.pose.covariance22,field.pose.covariance23,field.pose.covariance24,field.pose.covariance25,field.pose.covariance26,field.pose.covariance27,field.pose.covariance28,field.pose.covariance29,field.pose.covariance30,field.pose.covariance31,field.pose.covariance32,field.pose.covariance33,field.pose.covariance34,field.pose.covariance35,field.twist.twist.linear.x,field.twist.twist.linear.y,field.twist.twist.linear.z,field.twist.twist.angular.x,field.twist.twist.angular.y,field.twist.twist.angular.z,field.twist.covariance0,field.twist.covariance1,field.twist.covariance2,field.twist.covariance3,field.twist.covariance4,field.twist.covariance5,field.twist.covariance6,field.twist.covariance7,field.twist.covariance8,field.twist.covariance9,field.twist.covariance10,field.twist.covariance11,field.twist.covariance12,field.twist.covariance13,field.twist.covariance14,field.twist.covariance15,field.twist.covariance16,field.twist.covariance17,field.twist.covariance18,field.twist.covariance19,field.twist.covariance20,field.twist.covariance21,field.twist.covariance22,field.twist.covariance23,field.twist.covariance24,field.twist.covariance25,field.twist.covariance26,field.twist.covariance27,field.twist.covariance28,field.twist.covariance29,field.twist.covariance30,field.twist.covariance31,field.twist.covariance32,field.twist.covariance33,field.twist.covariance34,field.twist.covariance35
1549409014546903190,33362,1549409011933705263,map,gps_link,-1.33229278459,2.30619310448,209.725,0.0,0.0,0.0,1.0,0.0001,0.0,0.0,0.0,0.0,0.0,0.0,0.0001,0.0,0.0,0.0,0.0,0.0,0.0,0.0001,0.0,0.0,0.0,0.0,0.0,0.0,99999.0,0.0,0.0,0.0,0.0,0.0,0.0,99999.0,0.0,0.0,0.0,0.0,0.0,0.0,99999.0,0.0,0.0,0.0,0.0,0.0,0.0,9999.0,0.0,0.0,0.0,0.0,0.0,0.0,9999.0,0.0,0.0,0.0,0.0,0.0,0.0,9999.0,0.0,0.0,0.0,0.0,0.0,0.0,9999.0,0.0,0.0,0.0,0.0,0.0,0.0,9999.0,0.0,0.0,0.0,0.0,0.0,0.0,9999.0
1549409014546925589,33363,1549409011958763263,map,gps_link,-1.33229278459,2.30619310448,209.725,0.0,0.0,0.0,1.0,0.0001,0.0,0.0,0.0,0.0,0.0,0.0,0.0001,0.0,0.0,0.0,0.0,0.0,0.0,0.0001,0.0,0.0,0.0,0.0,0.0,0.0,99999.0,0.0,0.0,0.0,0.0,0.0,0.0,99999.0,0.0,0.0,0.0,0.0,0.0,0.0,99999.0,0.0,0.0,0.0,0.0,0.0,0.0,9999.0,0.0,0.0,0.0,0.0,0.0,0.0,9999.0,0.0,0.0,0.0,0.0,0.0,0.0,9999.0,0.0,0.0,0.0,0.0,0.0,0.0,9999.0,0.0,0.0,0.0,0.0,0.0,0.0,9999.0,0.0,0.0,0.0,0.0,0.0,0.0,9999.0
1549409014546931096,33364,1549409011983872513,map,gps_link,-1.33075218019,2.30615739524,209.723,0.0,0.0,0.0,1.0,0.0001,0.0,0.0,0.0,0.0,0.0,0.0,0.0001,0.0,0.0,0.0,0.0,0.0,0.0,0.0001,0.0,0.0,0.0,0.0,0.0,0.0,99999.0,0.0,0.0,0.0,0.0,0.0,0.0,99999.0,0.0,0.0,0.0,0.0,0.0,0.0,99999.0,0.0,0.0,0.0,0.0,0.0,0.0,9999.0,0.0,0.0,0.0,0.0,0.0,0.0,9999.0,0.0,0.0,0.0,0.0,0.0,0.0,9999.0,0.0,0.0,0.0,0.0,0.0,0.0,9999.0,0.0,0.0,0.0,0.0,0.0,0.0,9999.0,0.0,0.0,0.0,0.0,0.0,0.0,9999.0
1549409014546936058,33365,1549409012008741680,map,gps_link,-1.33075218019,2.30615739524,209.723,0.0,0.0,0.0,1.0,0.0001,0.0,0.0,0.0,0.0,0.0,0.0,0.0001,0.0,0.0,0.0,0.0,0.0,0.0,0.0001,0.0,0.0,0.0,0.0,0.0,0.0,99999.0,0.0,0.0,0.0,0.0,0.0,0.0,99999.0,0.0,0.0,0.0,0.0,0.0,0.0,99999.0,0.0,0.0,0.0,0.0,0.0,0.0,9999.0,0.0,0.0,0.0,0.0,0.0,0.0,9999.0,0.0,0.0,0.0,0.0,0.0,0.0,9999.0,0.0,0.0,0.0,0.0,0.0,0.0,9999.0,0.0,0.0,0.0,0.0,0.0,0.0,9999.0,0.0,0.0,0.0,0.0,0.0,0.0,9999.0
1549409014546949178,33366,1549409012033699930,map,gps_link,-1.33075218019,2.30615739524,209.723,0.0,0.0,0.0,1.0,0.0001,0.0,0.0,0.0,0.0,0.0,0.0,0.0001,0.0,0.0,0.0,0.0,0.0,0.0,0.0001,0.0,0.0,0.0,0.0,0.0,0.0,99999.0,0.0,0.0,0.0,0.0,0.0,0.0,99999.0,0.0,0.0,0.0,0.0,0.0,0.0,99999.0,0.0,0.0,0.0,0.0,0.0,0.0,9999.0,0.0,0.0,0.0,0.0,0.0,0.0,9999.0,0.0,0.0,0.0,0.0,0.0,0.0,9999.0,0.0,0.0,0.0,0.0,0.0,0.0,9999.0,0.0,0.0,0.0,0.0,0.0,0.0,9999.0,0.0,0.0,0.0,0.0,0.0,0.0,9999.0
1549409014546955661,33367,1549409012058824180,map,gps_link,-1.33075218019,2.30615739524,209.723,0.0,0.0,0.0,1.0,0.0001,0.0,0.0,0.0,0.0,0.0,0.0,0.0001,0.0,0.0,0.0,0.0,0.0,0.0,0.0001,0.0,0.0,0.0,0.0,0.0,0.0,99999.0,0.0,0.0,0.0,0.0,0.0,0.0,99999.0,0.0,0.0,0.0,0.0,0.0,0.0,99999.0,0.0,0.0,0.0,0.0,0.0,0.0,9999.0,0.0,0.0,0.0,0.0,0.0,0.0,9999.0,0.0,0.0,0.0,0.0,0.0,0.0,9999.0,0.0,0.0,0.0,0.0,0.0,0.0,9999.0,0.0,0.0,0.0,0.0,0.0,0.0,9999.0,0.0,0.0,0.0,0.0,0.0,0.0,9999.0
1549409014547067081,33368,1549409012083804263,map,gps_link,-1.33181346406,2.30692181317,209.722,0.0,0.0,0.0,1.0,0.0001,0.0,0.0,0.0,0.0,0.0,0.0,0.0001,0.0,0.0,0.0,0.0,0.0,0.0,0.0001,0.0,0.0,0.0,0.0,0.0,0.0,99999.0,0.0,0.0,0.0,0.0,0.0,0.0,99999.0,0.0,0.0,0.0,0.0,0.0,0.0,99999.0,0.0,0.0,0.0,0.0,0.0,0.0,9999.0,0.0,0.0,0.0,0.0,0.0,0.0,9999.0,0.0,0.0,0.0,0.0,0.0,0.0,9999.0,0.0,0.0,0.0,0.0,0.0,0.0,9999.0,0.0,0.0,0.0,0.0,0.0,0.0,9999.0,0.0,0.0,0.0,0.0,0.0,0.0,9999.0
1549409014547103209,33369,1549409012108704263,map,gps_link,-1.33181346406,2.30692181317,209.722,0.0,0.0,0.0,1.0,0.0001,0.0,0.0,0.0,0.0,0.0,0.0,0.0001,0.0,0.0,0.0,0.0,0.0,0.0,0.0001,0.0,0.0,0.0,0.0,0.0,0.0,99999.0,0.0,0.0,0.0,0.0,0.0,0.0,99999.0,0.0,0.0,0.0,0.0,0.0,0.0,99999.0,0.0,0.0,0.0,0.0,0.0,0.0,9999.0,0.0,0.0,0.0,0.0,0.0,0.0,9999.0,0.0,0.0,0.0,0.0,0.0,0.0,9999.0,0.0,0.0,0.0,0.0,0.0,0.0,9999.0,0.0,0.0,0.0,0.0,0.0,0.0,9999.0,0.0,0.0,0.0,0.0,0.0,0.0,9999.0
1549409014547119847,33370,1549409012133725930,map,gps_link,-1.33181346406,2.30692181317,209.722,0.0,0.0,0.0,1.0,0.0001,0.0,0.0,0.0,0.0,0.0,0.0,0.0001,0.0,0.0,0.0,0.0,0.0,0.0,0.0001,0.0,0.0,0.0,0.0,0.0,0.0,99999.0,0.0,0.0,0.0,0.0,0.0,0.0,99999.0,0.0,0.0,0.0,0.0,0.0,0.0,99999.0,0.0,0.0,0.0,0.0,0.0,0.0,9999.0,0.0,0.0,0.0,0.0,0.0,0.0,9999.0,0.0,0.0,0.0,0.0,0.0,0.0,9999.0,0.0,0.0,0.0,0.0,0.0,0.0,9999.0,0.0,0.0,0.0,0.0,0.0,0.0,9999.0,0.0,0.0,0.0,0.0,0.0,0.0,9999.0
1549409014547202060,33371,1549409012158826180,map,gps_link,-1.33181346406,2.30692181317,209.722,0.0,0.0,0.0,1.0,0.0001,0.0,0.0,0.0,0.0,0.0,0.0,0.0001,0.0,0.0,0.0,0.0,0.0,0.0,0.0001,0.0,0.0,0.0,0.0,0.0,0.0,99999.0,0.0,0.0,0.0,0.0,0.0,0.0,99999.0,0.0,0.0,0.0,0.0,0.0,0.0,99999.0,0.0,0.0,0.0,0.0,0.0,0.0,9999.0,0.0,0.0,0.0,0.0,0.0,0.0,9999.0,0.0,0.0,0.0,0.0,0.0,0.0,9999.0,0.0,0.0,0.0,0.0,0.0,0.0,9999.0,0.0,0.0,0.0,0.0,0.0,0.0,9999.0,0.0,0.0,0.0,0.0,0.0,0.0,9999.0
1549409014547921362,33372,1549409012183692013,map,gps_link,-1.33245541371,2.30582696339,209.724,0.0,0.0,0.0,1.0,0.0001,0.0,0.0,0.0,0.0,0.0,0.0,0.0001,0.0,0.0,0.0,0.0,0.0,0.0,0.0001,0.0,0.0,0.0,0.0,0.0,0.0,99999.0,0.0,0.0,0.0,0.0,0.0,0.0,99999.0,0.0,0.0,0.0,0.0,0.0,0.0,99999.0,0.0,0.0,0.0,0.0,0.0,0.0,9999.0,0.0,0.0,0.0,0.0,0.0,0.0,9999.0,0.0,0.0,0.0,0.0,0.0,0.0,9999.0,0.0,0.0,0.0,0.0,0.0,0.0,9999.0,0.0,0.0,0.0,0.0,0.0,0.0,9999.0,0.0,0.0,0.0,0.0,0.0,0.0,9999.0
1549409014547945445,33373,1549409012208762263,map,gps_link,-1.33245541371,2.30582696339,209.724,0.0,0.0,0.0,1.0,0.0001,0.0,0.0,0.0,0.0,0.0,0.0,0.0001,0.0,0.0,0.0,0.0,0.0,0.0,0.0001,0.0,0.0,0.0,0.0,0.0,0.0,99999.0,0.0,0.0,0.0,0.0,0.0,0.0,99999.0,0.0,0.0,0.0,0.0,0.0,0.0,99999.0,0.0,0.0,0.0,0.0,0.0,0.0,9999.0,0.0,0.0,0.0,0.0,0.0,0.0,9999.0,0.0,0.0,0.0,0.0,0.0,0.0,9999.0,0.0,0.0,0.0,0.0,0.0,0.0,9999.0,0.0,0.0,0.0,0.0,0.0,0.0,9999.0,0.0,0.0,0.0,0.0,0.0,0.0,9999.0
1549409014547950700,33374,1549409012233718180,map,gps_link,-1.33245541371,2.30582696339,209.724,0.0,0.0,0.0,1.0,0.0001,0.0,0.0,0.0,0.0,0.0,0.0,0.0001,0.0,0.0,0.0,0.0,0.0,0.0,0.0001,0.0,0.0,0.0,0.0,0.0,0.0,99999.0,0.0,0.0,0.0,0.0,0.0,0.0,99999.0,0.0,0.0,0.0,0.0,0.0,0.0,99999.0,0.0,0.0,0.0,0.0,0.0,0.0,9999.0,0.0,0.0,0.0,0.0,0.0,0.0,9999.0,0.0,0.0,0.0,0.0,0.0,0.0,9999.0,0.0,0.0,0.0,0.0,0.0,0.0,9999.0,0.0,0.0,0.0,0.0,0.0,0.0,9999.0,0.0,0.0,0.0,0.0,0.0,0.0,9999.0
1549409014547962094,33375,1549409012258706263,map,gps_link,-1.33245541371,2.30582696339,209.724,0.0,0.0,0.0,1.0,0.0001,0.0,0.0,0.0,0.0,0.0,0.0,0.0001,0.0,0.0,0.0,0.0,0.0,0.0,0.0001,0.0,0.0,0.0,0.0,0.0,0.0,99999.0,0.0,0.0,0.0,0.0,0.0,0.0,99999.0,0.0,0.0,0.0,0.0,0.0,0.0,99999.0,0.0,0.0,0.0,0.0,0.0,0.0,9999.0,0.0,0.0,0.0,0.0,0.0,0.0,9999.0,0.0,0.0,0.0,0.0,0.0,0.0,9999.0,0.0,0.0,0.0,0.0,0.0,0.0,9999.0,0.0,0.0,0.0,0.0,0.0,0.0,9999.0,0.0,0.0,0.0,0.0,0.0,0.0,9999.0
1549409014547985151,33376,1549409012283697513,map,gps_link,-1.33372217335,2.30437668785,209.725,0.0,0.0,0.0,1.0,0.0001,0.0,0.0,0.0,0.0,0.0,0.0,0.0001,0.0,0.0,0.0,0.0,0.0,0.0,0.0001,0.0,0.0,0.0,0.0,0.0,0.0,99999.0,0.0,0.0,0.0,0.0,0.0,0.0,99999.0,0.0,0.0,0.0,0.0,0.0,0.0,99999.0,0.0,0.0,0.0,0.0,0.0,0.0,9999.0,0.0,0.0,0.0,0.0,0.0,0.0,9999.0,0.0,0.0,0.0,0.0,0.0,0.0,9999.0,0.0,0.0,0.0,0.0,0.0,0.0,9999.0,0.0,0.0,0.0,0.0,0.0,0.0,9999.0,0.0,0.0,0.0,0.0,0.0,0.0,9999.0
1549409014547993086,33377,1549409012309379430,map,gps_link,-1.33372217335,2.30437668785,209.725,0.0,0.0,0.0,1.0,0.0001,0.0,0.0,0.0,0.0,0.0,0.0,0.0001,0.0,0.0,0.0,0.0,0.0,0.0,0.0001,0.0,0.0,0.0,0.0,0.0,0.0,99999.0,0.0,0.0,0.0,0.0,0.0,0.0,99999.0,0.0,0.0,0.0,0.0,0.0,0.0,99999.0,0.0,0.0,0.0,0.0,0.0,0.0,9999.0,0.0,0.0,0.0,0.0,0.0,0.0,9999.0,0.0,0.0,0.0,0.0,0.0,0.0,9999.0,0.0,0.0,0.0,0.0,0.0,0.0,9999.0,0.0,0.0,0.0,0.0,0.0,0.0,9999.0,0.0,0.0,0.0,0.0,0.0,0.0,9999.0
1549409014548005063,33378,1549409012334029846,map,gps_link,-1.33372217335,2.30437668785,209.725,0.0,0.0,0.0,1.0,0.0001,0.0,0.0,0.0,0.0,0.0,0.0,0.0001,0.0,0.0,0.0,0.0,0.0,0.0,0.0001,0.0,0.0,0.0,0.0,0.0,0.0,99999.0,0.0,0.0,0.0,0.0,0.0,0.0,99999.0,0.0,0.0,0.0,0.0,0.0,0.0,99999.0,0.0,0.0,0.0,0.0,0.0,0.0,9999.0,0.0,0.0,0.0,0.0,0.0,0.0,9999.0,0.0,0.0,0.0,0.0,0.0,0.0,9999.0,0.0,0.0,0.0,0.0,0.0,0.0,9999.0,0.0,0.0,0.0,0.0,0.0,0.0,9999.0,0.0,0.0,0.0,0.0,0.0,0.0,9999.0
1549409014548014701,33379,1549409012359263263,map,gps_link,-1.33372217335,2.30437668785,209.725,0.0,0.0,0.0,1.0,0.0001,0.0,0.0,0.0,0.0,0.0,0.0,0.0001,0.0,0.0,0.0,0.0,0.0,0.0,0.0001,0.0,0.0,0.0,0.0,0.0,0.0,99999.0,0.0,0.0,0.0,0.0,0.0,0.0,99999.0,0.0,0.0,0.0,0.0,0.0,0.0,99999.0,0.0,0.0,0.0,0.0,0.0,0.0,9999.0,0.0,0.0,0.0,0.0,0.0,0.0,9999.0,0.0,0.0,0.0,0.0,0.0,0.0,9999.0,0.0,0.0,0.0,0.0,0.0,0.0,9999.0,0.0,0.0,0.0,0.0,0.0,0.0,9999.0,0.0,0.0,0.0,0.0,0.0,0.0,9999.0
1549409014548020227,33380,1549409012383756430,map,gps_link,-1.33266088943,2.30361226993,209.725,0.0,0.0,0.0,1.0,0.0001,0.0,0.0,0.0,0.0,0.0,0.0,0.0001,0.0,0.0,0.0,0.0,0.0,0.0,0.0001,0.0,0.0,0.0,0.0,0.0,0.0,99999.0,0.0,0.0,0.0,0.0,0.0,0.0,99999.0,0.0,0.0,0.0,0.0,0.0,0.0,99999.0,0.0,0.0,0.0,0.0,0.0,0.0,9999.0,0.0,0.0,0.0,0.0,0.0,0.0,9999.0,0.0,0.0,0.0,0.0,0.0,0.0,9999.0,0.0,0.0,0.0,0.0,0.0,0.0,9999.0,0.0,0.0,0.0,0.0,0.0,0.0,9999.0,0.0,0.0,0.0,0.0,0.0,0.0,9999.0
1549409014548035339,33381,1549409012408767679,map,gps_link,-1.33266088943,2.30361226993,209.725,0.0,0.0,0.0,1.0,0.0001,0.0,0.0,0.0,0.0,0.0,0.0,0.0001,0.0,0.0,0.0,0.0,0.0,0.0,0.0001,0.0,0.0,0.0,0.0,0.0,0.0,99999.0,0.0,0.0,0.0,0.0,0.0,0.0,99999.0,0.0,0.0,0.0,0.0,0.0,0.0,99999.0,0.0,0.0,0.0,0.0,0.0,0.0,9999.0,0.0,0.0,0.0,0.0,0.0,0.0,9999.0,0.0,0.0,0.0,0.0,0.0,0.0,9999.0,0.0,0.0,0.0,0.0,0.0,0.0,9999.0,0.0,0.0,0.0,0.0,0.0,0.0,9999.0,0.0,0.0,0.0,0.0,0.0,0.0,9999.0
1549409014548047598,33382,1549409012433763513,map,gps_link,-1.33266088943,2.30361226993,209.725,0.0,0.0,0.0,1.0,0.0001,0.0,0.0,0.0,0.0,0.0,0.0,0.0001,0.0,0.0,0.0,0.0,0.0,0.0,0.0001,0.0,0.0,0.0,0.0,0.0,0.0,99999.0,0.0,0.0,0.0,0.0,0.0,0.0,99999.0,0.0,0.0,0.0,0.0,0.0,0.0,99999.0,0.0,0.0,0.0,0.0,0.0,0.0,9999.0,0.0,0.0,0.0,0.0,0.0,0.0,9999.0,0.0,0.0,0.0,0.0,0.0,0.0,9999.0,0.0,0.0,0.0,0.0,0.0,0.0,9999.0,0.0,0.0,0.0,0.0,0.0,0.0,9999.0,0.0,0.0,0.0,0.0,0.0,0.0,9999.0
1549409014548052912,33383,1549409012458701679,map,gps_link,-1.33266088943,2.30361226993,209.725,0.0,0.0,0.0,1.0,0.0001,0.0,0.0,0.0,0.0,0.0,0.0,0.0001,0.0,0.0,0.0,0.0,0.0,0.0,0.0001,0.0,0.0,0.0,0.0,0.0,0.0,99999.0,0.0,0.0,0.0,0.0,0.0,0.0,99999.0,0.0,0.0,0.0,0.0,0.0,0.0,99999.0,0.0,0.0,0.0,0.0,0.0,0.0,9999.0,0.0,0.0,0.0,0.0,0.0,0.0,9999.0,0.0,0.0,0.0,0.0,0.0,0.0,9999.0,0.0,0.0,0.0,0.0,0.0,0.0,9999.0,0.0,0.0,0.0,0.0,0.0,0.0,9999.0,0.0,0.0,0.0,0.0,0.0,0.0,9999.0
1549409014548072602,33384,1549409012483692929,map,gps_link,-1.3332942687,2.30288713146,209.729,0.0,0.0,0.0,1.0,0.0001,0.0,0.0,0.0,0.0,0.0,0.0,0.0001,0.0,0.0,0.0,0.0,0.0,0.0,0.0001,0.0,0.0,0.0,0.0,0.0,0.0,99999.0,0.0,0.0,0.0,0.0,0.0,0.0,99999.0,0.0,0.0,0.0,0.0,0.0,0.0,99999.0,0.0,0.0,0.0,0.0,0.0,0.0,9999.0,0.0,0.0,0.0,0.0,0.0,0.0,9999.0,0.0,0.0,0.0,0.0,0.0,0.0,9999.0,0.0,0.0,0.0,0.0,0.0,0.0,9999.0,0.0,0.0,0.0,0.0,0.0,0.0,9999.0,0.0,0.0,0.0,0.0,0.0,0.0,9999.0
1549409014548085606,33385,1549409012508751513,map,gps_link,-1.3332942687,2.30288713146,209.729,0.0,0.0,0.0,1.0,0.0001,0.0,0.0,0.0,0.0,0.0,0.0,0.0001,0.0,0.0,0.0,0.0,0.0,0.0,0.0001,0.0,0.0,0.0,0.0,0.0,0.0,99999.0,0.0,0.0,0.0,0.0,0.0,0.0,99999.0,0.0,0.0,0.0,0.0,0.0,0.0,99999.0,0.0,0.0,0.0,0.0,0.0,0.0,9999.0,0.0,0.0,0.0,0.0,0.0,0.0,9999.0,0.0,0.0,0.0,0.0,0.0,0.0,9999.0,0.0,0.0,0.0,0.0,0.0,0.0,9999.0,0.0,0.0,0.0,0.0,0.0,0.0,9999.0,0.0,0.0,0.0,0.0,0.0,0.0,9999.0
1549409014548096445,33386,1549409012533726179,map,gps_link,-1.3332942687,2.30288713146,209.729,0.0,0.0,0.0,1.0,0.0001,0.0,0.0,0.0,0.0,0.0,0.0,0.0001,0.0,0.0,0.0,0.0,0.0,0.0,0.0001,0.0,0.0,0.0,0.0,0.0,0.0,99999.0,0.0,0.0,0.0,0.0,0.0,0.0,99999.0,0.0,0.0,0.0,0.0,0.0,0.0,99999.0,0.0,0.0,0.0,0.0,0.0,0.0,9999.0,0.0,0.0,0.0,0.0,0.0,0.0,9999.0,0.0,0.0,0.0,0.0,0.0,0.0,9999.0,0.0,0.0,0.0,0.0,0.0,0.0,9999.0,0.0,0.0,0.0,0.0,0.0,0.0,9999.0,0.0,0.0,0.0,0.0,0.0,0.0,9999.0
1549409014548109117,33387,1549409012558757596,map,gps_link,-1.3332942687,2.30288713146,209.729,0.0,0.0,0.0,1.0,0.0001,0.0,0.0,0.0,0.0,0.0,0.0,0.0001,0.0,0.0,0.0,0.0,0.0,0.0,0.0001,0.0,0.0,0.0,0.0,0.0,0.0,99999.0,0.0,0.0,0.0,0.0,0.0,0.0,99999.0,0.0,0.0,0.0,0.0,0.0,0.0,99999.0,0.0,0.0,0.0,0.0,0.0,0.0,9999.0,0.0,0.0,0.0,0.0,0.0,0.0,9999.0,0.0,0.0,0.0,0.0,0.0,0.0,9999.0,0.0,0.0,0.0,0.0,0.0,0.0,9999.0,0.0,0.0,0.0,0.0,0.0,0.0,9999.0,0.0,0.0,0.0,0.0,0.0,0.0,9999.0
1549409014548117450,33388,1549409012584803429,map,gps_link,-1.33455246018,2.30180656584,209.725,0.0,0.0,0.0,1.0,0.0001,0.0,0.0,0.0,0.0,0.0,0.0,0.0001,0.0,0.0,0.0,0.0,0.0,0.0,0.0001,0.0,0.0,0.0,0.0,0.0,0.0,99999.0,0.0,0.0,0.0,0.0,0.0,0.0,99999.0,0.0,0.0,0.0,0.0,0.0,0.0,99999.0,0.0,0.0,0.0,0.0,0.0,0.0,9999.0,0.0,0.0,0.0,0.0,0.0,0.0,9999.0,0.0,0.0,0.0,0.0,0.0,0.0,9999.0,0.0,0.0,0.0,0.0,0.0,0.0,9999.0,0.0,0.0,0.0,0.0,0.0,0.0,9999.0,0.0,0.0,0.0,0.0,0.0,0.0,9999.0
1549409014548127000,33389,1549409012610065346,map,gps_link,-1.33455246018,2.30180656584,209.725,0.0,0.0,0.0,1.0,0.0001,0.0,0.0,0.0,0.0,0.0,0.0,0.0001,0.0,0.0,0.0,0.0,0.0,0.0,0.0001,0.0,0.0,0.0,0.0,0.0,0.0,99999.0,0.0,0.0,0.0,0.0,0.0,0.0,99999.0,0.0,0.0,0.0,0.0,0.0,0.0,99999.0,0.0,0.0,0.0,0.0,0.0,0.0,9999.0,0.0,0.0,0.0,0.0,0.0,0.0,9999.0,0.0,0.0,0.0,0.0,0.0,0.0,9999.0,0.0,0.0,0.0,0.0,0.0,0.0,9999.0,0.0,0.0,0.0,0.0,0.0,0.0,9999.0,0.0,0.0,0.0,0.0,0.0,0.0,9999.0
1549409014548138090,33390,1549409012634835263,map,gps_link,-1.33455246018,2.30180656584,209.725,0.0,0.0,0.0,1.0,0.0001,0.0,0.0,0.0,0.0,0.0,0.0,0.0001,0.0,0.0,0.0,0.0,0.0,0.0,0.0001,0.0,0.0,0.0,0.0,0.0,0.0,99999.0,0.0,0.0,0.0,0.0,0.0,0.0,99999.0,0.0,0.0,0.0,0.0,0.0,0.0,99999.0,0.0,0.0,0.0,0.0,0.0,0.0,9999.0,0.0,0.0,0.0,0.0,0.0,0.0,9999.0,0.0,0.0,0.0,0.0,0.0,0.0,9999.0,0.0,0.0,0.0,0.0,0.0,0.0,9999.0,0.0,0.0,0.0,0.0,0.0,0.0,9999.0,0.0,0.0,0.0,0.0,0.0,0.0,9999.0
1549409014548161592,33391,1549409012658745179,map,gps_link,-1.33455246018,2.30180656584,209.725,0.0,0.0,0.0,1.0,0.0001,0.0,0.0,0.0,0.0,0.0,0.0,0.0001,0.0,0.0,0.0,0.0,0.0,0.0,0.0001,0.0,0.0,0.0,0.0,0.0,0.0,99999.0,0.0,0.0,0.0,0.0,0.0,0.0,99999.0,0.0,0.0,0.0,0.0,0.0,0.0,99999.0,0.0,0.0,0.0,0.0,0.0,0.0,9999.0,0.0,0.0,0.0,0.0,0.0,0.0,9999.0,0.0,0.0,0.0,0.0,0.0,0.0,9999.0,0.0,0.0,0.0,0.0,0.0,0.0,9999.0,0.0,0.0,0.0,0.0,0.0,0.0,9999.0,0.0,0.0,0.0,0.0,0.0,0.0,9999.0
1549409014548171965,33392,1549409012683726679,map,gps_link,-1.33565230586,2.30090728495,209.725,0.0,0.0,0.0,1.0,0.0001,0.0,0.0,0.0,0.0,0.0,0.0,0.0001,0.0,0.0,0.0,0.0,0.0,0.0,0.0001,0.0,0.0,0.0,0.0,0.0,0.0,99999.0,0.0,0.0,0.0,0.0,0.0,0.0,99999.0,0.0,0.0,0.0,0.0,0.0,0.0,99999.0,0.0,0.0,0.0,0.0,0.0,0.0,9999.0,0.0,0.0,0.0,0.0,0.0,0.0,9999.0,0.0,0.0,0.0,0.0,0.0,0.0,9999.0,0.0,0.0,0.0,0.0,0.0,0.0,9999.0,0.0,0.0,0.0,0.0,0.0,0.0,9999.0,0.0,0.0,0.0,0.0,0.0,0.0,9999.0
1549409014548189947,33393,1549409012708694429,map,gps_link,-1.33565230586,2.30090728495,209.725,0.0,0.0,0.0,1.0,0.0001,0.0,0.0,0.0,0.0,0.0,0.0,0.0001,0.0,0.0,0.0,0.0,0.0,0.0,0.0001,0.0,0.0,0.0,0.0,0.0,0.0,99999.0,0.0,0.0,0.0,0.0,0.0,0.0,99999.0,0.0,0.0,0.0,0.0,0.0,0.0,99999.0,0.0,0.0,0.0,0.0,0.0,0.0,9999.0,0.0,0.0,0.0,0.0,0.0,0.0,9999.0,0.0,0.0,0.0,0.0,0.0,0.0,9999.0,0.0,0.0,0.0,0.0,0.0,0.0,9999.0,0.0,0.0,0.0,0.0,0.0,0.0,9999.0,0.0,0.0,0.0,0.0,0.0,0.0,9999.0
1549409014548203315,33394,1549409012736951763,map,gps_link,-1.33565230586,2.30090728495,209.725,0.0,0.0,0.0,1.0,0.0001,0.0,0.0,0.0,0.0,0.0,0.0,0.0001,0.0,0.0,0.0,0.0,0.0,0.0,0.0001,0.0,0.0,0.0,0.0,0.0,0.0,99999.0,0.0,0.0,0.0,0.0,0.0,0.0,99999.0,0.0,0.0,0.0,0.0,0.0,0.0,99999.0,0.0,0.0,0.0,0.0,0.0,0.0,9999.0,0.0,0.0,0.0,0.0,0.0,0.0,9999.0,0.0,0.0,0.0,0.0,0.0,0.0,9999.0,0.0,0.0,0.0,0.0,0.0,0.0,9999.0,0.0,0.0,0.0,0.0,0.0,0.0,9999.0,0.0,0.0,0.0,0.0,0.0,0.0,9999.0
1549409014548213509,33395,1549409012758703346,map,gps_link,-1.33565230586,2.30090728495,209.725,0.0,0.0,0.0,1.0,0.0001,0.0,0.0,0.0,0.0,0.0,0.0,0.0001,0.0,0.0,0.0,0.0,0.0,0.0,0.0001,0.0,0.0,0.0,0.0,0.0,0.0,99999.0,0.0,0.0,0.0,0.0,0.0,0.0,99999.0,0.0,0.0,0.0,0.0,0.0,0.0,99999.0,0.0,0.0,0.0,0.0,0.0,0.0,9999.0,0.0,0.0,0.0,0.0,0.0,0.0,9999.0,0.0,0.0,0.0,0.0,0.0,0.0,9999.0,0.0,0.0,0.0,0.0,0.0,0.0,9999.0,0.0,0.0,0.0,0.0,0.0,0.0,9999.0,0.0,0.0,0.0,0.0,0.0,0.0,9999.0
1549409014548227189,33396,1549409012783927763,map,gps_link,-1.33428290114,2.30013572564,209.722,0.0,0.0,0.0,1.0,0.0001,0.0,0.0,0.0,0.0,0.0,0.0,0.0001,0.0,0.0,0.0,0.0,0.0,0.0,0.0001,0.0,0.0,0.0,0.0,0.0,0.0,99999.0,0.0,0.0,0.0,0.0,0.0,0.0,99999.0,0.0,0.0,0.0,0.0,0.0,0.0,99999.0,0.0,0.0,0.0,0.0,0.0,0.0,9999.0,0.0,0.0,0.0,0.0,0.0,0.0,9999.0,0.0,0.0,0.0,0.0,0.0,0.0,9999.0,0.0,0.0,0.0,0.0,0.0,0.0,9999.0,0.0,0.0,0.0,0.0,0.0,0.0,9999.0,0.0,0.0,0.0,0.0,0.0,0.0,9999.0
1549409014548242342,33397,1549409012810255179,map,gps_link,-1.33428290114,2.30013572564,209.722,0.0,0.0,0.0,1.0,0.0001,0.0,0.0,0.0,0.0,0.0,0.0,0.0001,0.0,0.0,0.0,0.0,0.0,0.0,0.0001,0.0,0.0,0.0,0.0,0.0,0.0,99999.0,0.0,0.0,0.0,0.0,0.0,0.0,99999.0,0.0,0.0,0.0,0.0,0.0,0.0,99999.0,0.0,0.0,0.0,0.0,0.0,0.0,9999.0,0.0,0.0,0.0,0.0,0.0,0.0,9999.0,0.0,0.0,0.0,0.0,0.0,0.0,9999.0,0.0,0.0,0.0,0.0,0.0,0.0,9999.0,0.0,0.0,0.0,0.0,0.0,0.0,9999.0,0.0,0.0,0.0,0.0,0.0,0.0,9999.0
1549409014548267747,33398,1549409012834906846,map,gps_link,-1.33428290114,2.30013572564,209.722,0.0,0.0,0.0,1.0,0.0001,0.0,0.0,0.0,0.0,0.0,0.0,0.0001,0.0,0.0,0.0,0.0,0.0,0.0,0.0001,0.0,0.0,0.0,0.0,0.0,0.0,99999.0,0.0,0.0,0.0,0.0,0.0,0.0,99999.0,0.0,0.0,0.0,0.0,0.0,0.0,99999.0,0.0,0.0,0.0,0.0,0.0,0.0,9999.0,0.0,0.0,0.0,0.0,0.0,0.0,9999.0,0.0,0.0,0.0,0.0,0.0,0.0,9999.0,0.0,0.0,0.0,0.0,0.0,0.0,9999.0,0.0,0.0,0.0,0.0,0.0,0.0,9999.0,0.0,0.0,0.0,0.0,0.0,0.0,9999.0
1549409014548278899,33399,1549409012858762513,map,gps_link,-1.3342272006,2.30253884569,209.722,0.0,0.0,0.0,1.0,0.0001,0.0,0.0,0.0,0.0,0.0,0.0,0.0001,0.0,0.0,0.0,0.0,0.0,0.0,0.0001,0.0,0.0,0.0,0.0,0.0,0.0,99999.0,0.0,0.0,0.0,0.0,0.0,0.0,99999.0,0.0,0.0,0.0,0.0,0.0,0.0,99999.0,0.0,0.0,0.0,0.0,0.0,0.0,9999.0,0.0,0.0,0.0,0.0,0.0,0.0,9999.0,0.0,0.0,0.0,0.0,0.0,0.0,9999.0,0.0,0.0,0.0,0.0,0.0,0.0,9999.0,0.0,0.0,0.0,0.0,0.0,0.0,9999.0,0.0,0.0,0.0,0.0,0.0,0.0,9999.0
1549409014548290208,33400,1549409012884887096,map,gps_link,-1.33407313959,2.30253527453,209.724,0.0,0.0,0.0,1.0,0.0001,0.0,0.0,0.0,0.0,0.0,0.0,0.0001,0.0,0.0,0.0,0.0,0.0,0.0,0.0001,0.0,0.0,0.0,0.0,0.0,0.0,99999.0,0.0,0.0,0.0,0.0,0.0,0.0,99999.0,0.0,0.0,0.0,0.0,0.0,0.0,99999.0,0.0,0.0,0.0,0.0,0.0,0.0,9999.0,0.0,0.0,0.0,0.0,0.0,0.0,9999.0,0.0,0.0,0.0,0.0,0.0,0.0,9999.0,0.0,0.0,0.0,0.0,0.0,0.0,9999.0,0.0,0.0,0.0,0.0,0.0,0.0,9999.0,0.0,0.0,0.0,0.0,0.0,0.0,9999.0
1549409014548299621,33401,1549409012912567679,map,gps_link,-1.33407313959,2.30253527453,209.724,0.0,0.0,0.0,1.0,0.0001,0.0,0.0,0.0,0.0,0.0,0.0,0.0001,0.0,0.0,0.0,0.0,0.0,0.0,0.0001,0.0,0.0,0.0,0.0,0.0,0.0,99999.0,0.0,0.0,0.0,0.0,0.0,0.0,99999.0,0.0,0.0,0.0,0.0,0.0,0.0,99999.0,0.0,0.0,0.0,0.0,0.0,0.0,9999.0,0.0,0.0,0.0,0.0,0.0,0.0,9999.0,0.0,0.0,0.0,0.0,0.0,0.0,9999.0,0.0,0.0,0.0,0.0,0.0,0.0,9999.0,0.0,0.0,0.0,0.0,0.0,0.0,9999.0,0.0,0.0,0.0,0.0,0.0,0.0,9999.0
1549409014548312135,33402,1549409012933709513,map,gps_link,-1.33407313959,2.30253527453,209.724,0.0,0.0,0.0,1.0,0.0001,0.0,0.0,0.0,0.0,0.0,0.0,0.0001,0.0,0.0,0.0,0.0,0.0,0.0,0.0001,0.0,0.0,0.0,0.0,0.0,0.0,99999.0,0.0,0.0,0.0,0.0,0.0,0.0,99999.0,0.0,0.0,0.0,0.0,0.0,0.0,99999.0,0.0,0.0,0.0,0.0,0.0,0.0,9999.0,0.0,0.0,0.0,0.0,0.0,0.0,9999.0,0.0,0.0,0.0,0.0,0.0,0.0,9999.0,0.0,0.0,0.0,0.0,0.0,0.0,9999.0,0.0,0.0,0.0,0.0,0.0,0.0,9999.0,0.0,0.0,0.0,0.0,0.0,0.0,9999.0
1549409014548320105,33403,1549409012958694096,map,gps_link,-1.33407313959,2.30253527453,209.724,0.0,0.0,0.0,1.0,0.0001,0.0,0.0,0.0,0.0,0.0,0.0,0.0001,0.0,0.0,0.0,0.0,0.0,0.0,0.0001,0.0,0.0,0.0,0.0,0.0,0.0,99999.0,0.0,0.0,0.0,0.0,0.0,0.0,99999.0,0.0,0.0,0.0,0.0,0.0,0.0,99999.0,0.0,0.0,0.0,0.0,0.0,0.0,9999.0,0.0,0.0,0.0,0.0,0.0,0.0,9999.0,0.0,0.0,0.0,0.0,0.0,0.0,9999.0,0.0,0.0,0.0,0.0,0.0,0.0,9999.0,0.0,0.0,0.0,0.0,0.0,0.0,9999.0,0.0,0.0,0.0,0.0,0.0,0.0,9999.0
1549409014548337637,33404,1549409012983826763,map,gps_link,-1.33347832225,2.30159671512,209.726,0.0,0.0,0.0,1.0,0.0001,0.0,0.0,0.0,0.0,0.0,0.0,0.0001,0.0,0.0,0.0,0.0,0.0,0.0,0.0001,0.0,0.0,0.0,0.0,0.0,0.0,99999.0,0.0,0.0,0.0,0.0,0.0,0.0,99999.0,0.0,0.0,0.0,0.0,0.0,0.0,99999.0,0.0,0.0,0.0,0.0,0.0,0.0,9999.0,0.0,0.0,0.0,0.0,0.0,0.0,9999.0,0.0,0.0,0.0,0.0,0.0,0.0,9999.0,0.0,0.0,0.0,0.0,0.0,0.0,9999.0,0.0,0.0,0.0,0.0,0.0,0.0,9999.0,0.0,0.0,0.0,0.0,0.0,0.0,9999.0
1549409014548347771,33405,1549409013011227929,map,gps_link,-1.33347832225,2.30159671512,209.726,0.0,0.0,0.0,1.0,0.0001,0.0,0.0,0.0,0.0,0.0,0.0,0.0001,0.0,0.0,0.0,0.0,0.0,0.0,0.0001,0.0,0.0,0.0,0.0,0.0,0.0,99999.0,0.0,0.0,0.0,0.0,0.0,0.0,99999.0,0.0,0.0,0.0,0.0,0.0,0.0,99999.0,0.0,0.0,0.0,0.0,0.0,0.0,9999.0,0.0,0.0,0.0,0.0,0.0,0.0,9999.0,0.0,0.0,0.0,0.0,0.0,0.0,9999.0,0.0,0.0,0.0,0.0,0.0,0.0,9999.0,0.0,0.0,0.0,0.0,0.0,0.0,9999.0,0.0,0.0,0.0,0.0,0.0,0.0,9999.0
1549409014548361856,33406,1549409013033836929,map,gps_link,-1.33347832225,2.30159671512,209.726,0.0,0.0,0.0,1.0,0.0001,0.0,0.0,0.0,0.0,0.0,0.0,0.0001,0.0,0.0,0.0,0.0,0.0,0.0,0.0001,0.0,0.0,0.0,0.0,0.0,0.0,99999.0,0.0,0.0,0.0,0.0,0.0,0.0,99999.0,0.0,0.0,0.0,0.0,0.0,0.0,99999.0,0.0,0.0,0.0,0.0,0.0,0.0,9999.0,0.0,0.0,0.0,0.0,0.0,0.0,9999.0,0.0,0.0,0.0,0.0,0.0,0.0,9999.0,0.0,0.0,0.0,0.0,0.0,0.0,9999.0,0.0,0.0,0.0,0.0,0.0,0.0,9999.0,0.0,0.0,0.0,0.0,0.0,0.0,9999.0
1549409014548375355,33407,1549409013060231513,map,gps_link,-1.33345689904,2.30252099084,209.726,0.0,0.0,0.0,1.0,0.0001,0.0,0.0,0.0,0.0,0.0,0.0,0.0001,0.0,0.0,0.0,0.0,0.0,0.0,0.0001,0.0,0.0,0.0,0.0,0.0,0.0,99999.0,0.0,0.0,0.0,0.0,0.0,0.0,99999.0,0.0,0.0,0.0,0.0,0.0,0.0,99999.0,0.0,0.0,0.0,0.0,0.0,0.0,9999.0,0.0,0.0,0.0,0.0,0.0,0.0,9999.0,0.0,0.0,0.0,0.0,0.0,0.0,9999.0,0.0,0.0,0.0,0.0,0.0,0.0,9999.0,0.0,0.0,0.0,0.0,0.0,0.0,9999.0,0.0,0.0,0.0,0.0,0.0,0.0,9999.0
1549409014548385738,33408,1549409013084723763,map,gps_link,-1.33592186368,2.30257812515,209.723,0.0,0.0,0.0,1.0,0.0001,0.0,0.0,0.0,0.0,0.0,0.0,0.0001,0.0,0.0,0.0,0.0,0.0,0.0,0.0001,0.0,0.0,0.0,0.0,0.0,0.0,99999.0,0.0,0.0,0.0,0.0,0.0,0.0,99999.0,0.0,0.0,0.0,0.0,0.0,0.0,99999.0,0.0,0.0,0.0,0.0,0.0,0.0,9999.0,0.0,0.0,0.0,0.0,0.0,0.0,9999.0,0.0,0.0,0.0,0.0,0.0,0.0,9999.0,0.0,0.0,0.0,0.0,0.0,0.0,9999.0,0.0,0.0,0.0,0.0,0.0,0.0,9999.0,0.0,0.0,0.0,0.0,0.0,0.0,9999.0
1549409014548395660,33409,1549409013113280013,map,gps_link,-1.33592186368,2.30257812515,209.723,0.0,0.0,0.0,1.0,0.0001,0.0,0.0,0.0,0.0,0.0,0.0,0.0001,0.0,0.0,0.0,0.0,0.0,0.0,0.0001,0.0,0.0,0.0,0.0,0.0,0.0,99999.0,0.0,0.0,0.0,0.0,0.0,0.0,99999.0,0.0,0.0,0.0,0.0,0.0,0.0,99999.0,0.0,0.0,0.0,0.0,0.0,0.0,9999.0,0.0,0.0,0.0,0.0,0.0,0.0,9999.0,0.0,0.0,0.0,0.0,0.0,0.0,9999.0,0.0,0.0,0.0,0.0,0.0,0.0,9999.0,0.0,0.0,0.0,0.0,0.0,0.0,9999.0,0.0,0.0,0.0,0.0,0.0,0.0,9999.0
1549409014548406786,33410,1549409013133793679,map,gps_link,-1.33592186368,2.30257812515,209.723,0.0,0.0,0.0,1.0,0.0001,0.0,0.0,0.0,0.0,0.0,0.0,0.0001,0.0,0.0,0.0,0.0,0.0,0.0,0.0001,0.0,0.0,0.0,0.0,0.0,0.0,99999.0,0.0,0.0,0.0,0.0,0.0,0.0,99999.0,0.0,0.0,0.0,0.0,0.0,0.0,99999.0,0.0,0.0,0.0,0.0,0.0,0.0,9999.0,0.0,0.0,0.0,0.0,0.0,0.0,9999.0,0.0,0.0,0.0,0.0,0.0,0.0,9999.0,0.0,0.0,0.0,0.0,0.0,0.0,9999.0,0.0,0.0,0.0,0.0,0.0,0.0,9999.0,0.0,0.0,0.0,0.0,0.0,0.0,9999.0
1549409014548418184,33411,1549409013159152596,map,gps_link,-1.32655808737,2.31419818988,209.723,0.0,0.0,0.0,1.0,0.0001,0.0,0.0,0.0,0.0,0.0,0.0,0.0001,0.0,0.0,0.0,0.0,0.0,0.0,0.0001,0.0,0.0,0.0,0.0,0.0,0.0,99999.0,0.0,0.0,0.0,0.0,0.0,0.0,99999.0,0.0,0.0,0.0,0.0,0.0,0.0,99999.0,0.0,0.0,0.0,0.0,0.0,0.0,9999.0,0.0,0.0,0.0,0.0,0.0,0.0,9999.0,0.0,0.0,0.0,0.0,0.0,0.0,9999.0,0.0,0.0,0.0,0.0,0.0,0.0,9999.0,0.0,0.0,0.0,0.0,0.0,0.0,9999.0,0.0,0.0,0.0,0.0,0.0,0.0,9999.0
1549409014548431324,33412,1549409013183825929,map,gps_link,-1.32655808737,2.31419818988,209.732,0.0,0.0,0.0,1.0,0.0001,0.0,0.0,0.0,0.0,0.0,0.0,0.0001,0.0,0.0,0.0,0.0,0.0,0.0,0.0001,0.0,0.0,0.0,0.0,0.0,0.0,99999.0,0.0,0.0,0.0,0.0,0.0,0.0,99999.0,0.0,0.0,0.0,0.0,0.0,0.0,99999.0,0.0,0.0,0.0,0.0,0.0,0.0,9999.0,0.0,0.0,0.0,0.0,0.0,0.0,9999.0,0.0,0.0,0.0,0.0,0.0,0.0,9999.0,0.0,0.0,0.0,0.0,0.0,0.0,9999.0,0.0,0.0,0.0,0.0,0.0,0.0,9999.0,0.0,0.0,0.0,0.0,0.0,0.0,9999.0
1549409014548452831,33413,1549409013211804346,map,gps_link,-1.32655808737,2.31419818988,209.732,0.0,0.0,0.0,1.0,0.0001,0.0,0.0,0.0,0.0,0.0,0.0,0.0001,0.0,0.0,0.0,0.0,0.0,0.0,0.0001,0.0,0.0,0.0,0.0,0.0,0.0,99999.0,0.0,0.0,0.0,0.0,0.0,0.0,99999.0,0.0,0.0,0.0,0.0,0.0,0.0,99999.0,0.0,0.0,0.0,0.0,0.0,0.0,9999.0,0.0,0.0,0.0,0.0,0.0,0.0,9999.0,0.0,0.0,0.0,0.0,0.0,0.0,9999.0,0.0,0.0,0.0,0.0,0.0,0.0,9999.0,0.0,0.0,0.0,0.0,0.0,0.0,9999.0,0.0,0.0,0.0,0.0,0.0,0.0,9999.0
1549409014548463370,33414,1549409013236148513,map,gps_link,-1.32655808737,2.31419818988,209.732,0.0,0.0,0.0,1.0,0.0001,0.0,0.0,0.0,0.0,0.0,0.0,0.0001,0.0,0.0,0.0,0.0,0.0,0.0,0.0001,0.0,0.0,0.0,0.0,0.0,0.0,99999.0,0.0,0.0,0.0,0.0,0.0,0.0,99999.0,0.0,0.0,0.0,0.0,0.0,0.0,99999.0,0.0,0.0,0.0,0.0,0.0,0.0,9999.0,0.0,0.0,0.0,0.0,0.0,0.0,9999.0,0.0,0.0,0.0,0.0,0.0,0.0,9999.0,0.0,0.0,0.0,0.0,0.0,0.0,9999.0,0.0,0.0,0.0,0.0,0.0,0.0,9999.0,0.0,0.0,0.0,0.0,0.0,0.0,9999.0
1549409014548472624,33415,1549409013264904596,map,gps_link,-1.32656237204,2.31401333539,209.732,0.0,0.0,0.0,1.0,0.0001,0.0,0.0,0.0,0.0,0.0,0.0,0.0001,0.0,0.0,0.0,0.0,0.0,0.0,0.0001,0.0,0.0,0.0,0.0,0.0,0.0,99999.0,0.0,0.0,0.0,0.0,0.0,0.0,99999.0,0.0,0.0,0.0,0.0,0.0,0.0,99999.0,0.0,0.0,0.0,0.0,0.0,0.0,9999.0,0.0,0.0,0.0,0.0,0.0,0.0,9999.0,0.0,0.0,0.0,0.0,0.0,0.0,9999.0,0.0,0.0,0.0,0.0,0.0,0.0,9999.0,0.0,0.0,0.0,0.0,0.0,0.0,9999.0,0.0,0.0,0.0,0.0,0.0,0.0,9999.0
1549409014548478749,33416,1549409013285482096,map,gps_link,-1.32640831103,2.31400976423,209.731,0.0,0.0,0.0,1.0,0.0001,0.0,0.0,0.0,0.0,0.0,0.0,0.0001,0.0,0.0,0.0,0.0,0.0,0.0,0.0001,0.0,0.0,0.0,0.0,0.0,0.0,99999.0,0.0,0.0,0.0,0.0,0.0,0.0,99999.0,0.0,0.0,0.0,0.0,0.0,0.0,99999.0,0.0,0.0,0.0,0.0,0.0,0.0,9999.0,0.0,0.0,0.0,0.0,0.0,0.0,9999.0,0.0,0.0,0.0,0.0,0.0,0.0,9999.0,0.0,0.0,0.0,0.0,0.0,0.0,9999.0,0.0,0.0,0.0,0.0,0.0,0.0,9999.0,0.0,0.0,0.0,0.0,0.0,0.0,9999.0
1549409014548493023,33417,1549409013311060179,map,gps_link,-1.32640831103,2.31400976423,209.731,0.0,0.0,0.0,1.0,0.0001,0.0,0.0,0.0,0.0,0.0,0.0,0.0001,0.0,0.0,0.0,0.0,0.0,0.0,0.0001,0.0,0.0,0.0,0.0,0.0,0.0,99999.0,0.0,0.0,0.0,0.0,0.0,0.0,99999.0,0.0,0.0,0.0,0.0,0.0,0.0,99999.0,0.0,0.0,0.0,0.0,0.0,0.0,9999.0,0.0,0.0,0.0,0.0,0.0,0.0,9999.0,0.0,0.0,0.0,0.0,0.0,0.0,9999.0,0.0,0.0,0.0,0.0,0.0,0.0,9999.0,0.0,0.0,0.0,0.0,0.0,0.0,9999.0,0.0,0.0,0.0,0.0,0.0,0.0,9999.0
1549409014548514483,33418,1549409013338696096,map,gps_link,-1.32640831103,2.31400976423,209.731,0.0,0.0,0.0,1.0,0.0001,0.0,0.0,0.0,0.0,0.0,0.0,0.0001,0.0,0.0,0.0,0.0,0.0,0.0,0.0001,0.0,0.0,0.0,0.0,0.0,0.0,99999.0,0.0,0.0,0.0,0.0,0.0,0.0,99999.0,0.0,0.0,0.0,0.0,0.0,0.0,99999.0,0.0,0.0,0.0,0.0,0.0,0.0,9999.0,0.0,0.0,0.0,0.0,0.0,0.0,9999.0,0.0,0.0,0.0,0.0,0.0,0.0,9999.0,0.0,0.0,0.0,0.0,0.0,0.0,9999.0,0.0,0.0,0.0,0.0,0.0,0.0,9999.0,0.0,0.0,0.0,0.0,0.0,0.0,9999.0
1549409014548519306,33419,1549409013359208429,map,gps_link,-1.32660093403,2.31234963564,209.737,0.0,0.0,0.0,1.0,0.0001,0.0,0.0,0.0,0.0,0.0,0.0,0.0001,0.0,0.0,0.0,0.0,0.0,0.0,0.0001,0.0,0.0,0.0,0.0,0.0,0.0,99999.0,0.0,0.0,0.0,0.0,0.0,0.0,99999.0,0.0,0.0,0.0,0.0,0.0,0.0,99999.0,0.0,0.0,0.0,0.0,0.0,0.0,9999.0,0.0,0.0,0.0,0.0,0.0,0.0,9999.0,0.0,0.0,0.0,0.0,0.0,0.0,9999.0,0.0,0.0,0.0,0.0,0.0,0.0,9999.0,0.0,0.0,0.0,0.0,0.0,0.0,9999.0,0.0,0.0,0.0,0.0,0.0,0.0,9999.0
1549409014548528104,33420,1549409013387903263,map,gps_link,-1.32660093403,2.31234963564,209.737,0.0,0.0,0.0,1.0,0.0001,0.0,0.0,0.0,0.0,0.0,0.0,0.0001,0.0,0.0,0.0,0.0,0.0,0.0,0.0001,0.0,0.0,0.0,0.0,0.0,0.0,99999.0,0.0,0.0,0.0,0.0,0.0,0.0,99999.0,0.0,0.0,0.0,0.0,0.0,0.0,99999.0,0.0,0.0,0.0,0.0,0.0,0.0,9999.0,0.0,0.0,0.0,0.0,0.0,0.0,9999.0,0.0,0.0,0.0,0.0,0.0,0.0,9999.0,0.0,0.0,0.0,0.0,0.0,0.0,9999.0,0.0,0.0,0.0,0.0,0.0,0.0,9999.0,0.0,0.0,0.0,0.0,0.0,0.0,9999.0
1549409014548541212,33421,1549409013416353263,map,gps_link,-1.32660093403,2.31234963564,209.737,0.0,0.0,0.0,1.0,0.0001,0.0,0.0,0.0,0.0,0.0,0.0,0.0001,0.0,0.0,0.0,0.0,0.0,0.0,0.0001,0.0,0.0,0.0,0.0,0.0,0.0,99999.0,0.0,0.0,0.0,0.0,0.0,0.0,99999.0,0.0,0.0,0.0,0.0,0.0,0.0,99999.0,0.0,0.0,0.0,0.0,0.0,0.0,9999.0,0.0,0.0,0.0,0.0,0.0,0.0,9999.0,0.0,0.0,0.0,0.0,0.0,0.0,9999.0,0.0,0.0,0.0,0.0,0.0,0.0,9999.0,0.0,0.0,0.0,0.0,0.0,0.0,9999.0,0.0,0.0,0.0,0.0,0.0,0.0,9999.0
1549409014548552758,33422,1549409013436837929,map,gps_link,-1.32660093403,2.31234963564,209.737,0.0,0.0,0.0,1.0,0.0001,0.0,0.0,0.0,0.0,0.0,0.0,0.0001,0.0,0.0,0.0,0.0,0.0,0.0,0.0001,0.0,0.0,0.0,0.0,0.0,0.0,99999.0,0.0,0.0,0.0,0.0,0.0,0.0,99999.0,0.0,0.0,0.0,0.0,0.0,0.0,99999.0,0.0,0.0,0.0,0.0,0.0,0.0,9999.0,0.0,0.0,0.0,0.0,0.0,0.0,9999.0,0.0,0.0,0.0,0.0,0.0,0.0,9999.0,0.0,0.0,0.0,0.0,0.0,0.0,9999.0,0.0,0.0,0.0,0.0,0.0,0.0,9999.0,0.0,0.0,0.0,0.0,0.0,0.0,9999.0
1549409014548558585,33423,1549409013465603929,map,gps_link,-1.32655380276,2.31438304484,209.737,0.0,0.0,0.0,1.0,0.0001,0.0,0.0,0.0,0.0,0.0,0.0,0.0001,0.0,0.0,0.0,0.0,0.0,0.0,0.0001,0.0,0.0,0.0,0.0,0.0,0.0,99999.0,0.0,0.0,0.0,0.0,0.0,0.0,99999.0,0.0,0.0,0.0,0.0,0.0,0.0,99999.0,0.0,0.0,0.0,0.0,0.0,0.0,9999.0,0.0,0.0,0.0,0.0,0.0,0.0,9999.0,0.0,0.0,0.0,0.0,0.0,0.0,9999.0,0.0,0.0,0.0,0.0,0.0,0.0,9999.0,0.0,0.0,0.0,0.0,0.0,0.0,9999.0,0.0,0.0,0.0,0.0,0.0,0.0,9999.0
1549409014548566691,33424,1549409013486122846,map,gps_link,-1.32547537913,2.31435804861,209.734,0.0,0.0,0.0,1.0,0.0001,0.0,0.0,0.0,0.0,0.0,0.0,0.0001,0.0,0.0,0.0,0.0,0.0,0.0,0.0001,0.0,0.0,0.0,0.0,0.0,0.0,99999.0,0.0,0.0,0.0,0.0,0.0,0.0,99999.0,0.0,0.0,0.0,0.0,0.0,0.0,99999.0,0.0,0.0,0.0,0.0,0.0,0.0,9999.0,0.0,0.0,0.0,0.0,0.0,0.0,9999.0,0.0,0.0,0.0,0.0,0.0,0.0,9999.0,0.0,0.0,0.0,0.0,0.0,0.0,9999.0,0.0,0.0,0.0,0.0,0.0,0.0,9999.0,0.0,0.0,0.0,0.0,0.0,0.0,9999.0
1549409014548578517,33425,1549409013510697096,map,gps_link,-1.32547537913,2.31435804861,209.734,0.0,0.0,0.0,1.0,0.0001,0.0,0.0,0.0,0.0,0.0,0.0,0.0001,0.0,0.0,0.0,0.0,0.0,0.0,0.0001,0.0,0.0,0.0,0.0,0.0,0.0,99999.0,0.0,0.0,0.0,0.0,0.0,0.0,99999.0,0.0,0.0,0.0,0.0,0.0,0.0,99999.0,0.0,0.0,0.0,0.0,0.0,0.0,9999.0,0.0,0.0,0.0,0.0,0.0,0.0,9999.0,0.0,0.0,0.0,0.0,0.0,0.0,9999.0,0.0,0.0,0.0,0.0,0.0,0.0,9999.0,0.0,0.0,0.0,0.0,0.0,0.0,9999.0,0.0,0.0,0.0,0.0,0.0,0.0,9999.0
1549409014548591607,33426,1549409013539416846,map,gps_link,-1.32547537913,2.31435804861,209.734,0.0,0.0,0.0,1.0,0.0001,0.0,0.0,0.0,0.0,0.0,0.0,0.0001,0.0,0.0,0.0,0.0,0.0,0.0,0.0001,0.0,0.0,0.0,0.0,0.0,0.0,99999.0,0.0,0.0,0.0,0.0,0.0,0.0,99999.0,0.0,0.0,0.0,0.0,0.0,0.0,99999.0,0.0,0.0,0.0,0.0,0.0,0.0,9999.0,0.0,0.0,0.0,0.0,0.0,0.0,9999.0,0.0,0.0,0.0,0.0,0.0,0.0,9999.0,0.0,0.0,0.0,0.0,0.0,0.0,9999.0,0.0,0.0,0.0,0.0,0.0,0.0,9999.0,0.0,0.0,0.0,0.0,0.0,0.0,9999.0
1549409014548660662,33427,1549409013563738763,map,gps_link,-1.32672928594,2.31346233888,209.73,0.0,0.0,0.0,1.0,0.0001,0.0,0.0,0.0,0.0,0.0,0.0,0.0001,0.0,0.0,0.0,0.0,0.0,0.0,0.0001,0.0,0.0,0.0,0.0,0.0,0.0,99999.0,0.0,0.0,0.0,0.0,0.0,0.0,99999.0,0.0,0.0,0.0,0.0,0.0,0.0,99999.0,0.0,0.0,0.0,0.0,0.0,0.0,9999.0,0.0,0.0,0.0,0.0,0.0,0.0,9999.0,0.0,0.0,0.0,0.0,0.0,0.0,9999.0,0.0,0.0,0.0,0.0,0.0,0.0,9999.0,0.0,0.0,0.0,0.0,0.0,0.0,9999.0,0.0,0.0,0.0,0.0,0.0,0.0,9999.0
1549409014549981415,33428,1549409013593955346,map,gps_link,-1.32672928594,2.31346233888,209.73,0.0,0.0,0.0,1.0,0.0001,0.0,0.0,0.0,0.0,0.0,0.0,0.0001,0.0,0.0,0.0,0.0,0.0,0.0,0.0001,0.0,0.0,0.0,0.0,0.0,0.0,99999.0,0.0,0.0,0.0,0.0,0.0,0.0,99999.0,0.0,0.0,0.0,0.0,0.0,0.0,99999.0,0.0,0.0,0.0,0.0,0.0,0.0,9999.0,0.0,0.0,0.0,0.0,0.0,0.0,9999.0,0.0,0.0,0.0,0.0,0.0,0.0,9999.0,0.0,0.0,0.0,0.0,0.0,0.0,9999.0,0.0,0.0,0.0,0.0,0.0,0.0,9999.0,0.0,0.0,0.0,0.0,0.0,0.0,9999.0
1549409014549987224,33429,1549409013642343679,map,gps_link,-1.32672928594,2.31346233888,209.73,0.0,0.0,0.0,1.0,0.0001,0.0,0.0,0.0,0.0,0.0,0.0,0.0001,0.0,0.0,0.0,0.0,0.0,0.0,0.0001,0.0,0.0,0.0,0.0,0.0,0.0,99999.0,0.0,0.0,0.0,0.0,0.0,0.0,99999.0,0.0,0.0,0.0,0.0,0.0,0.0,99999.0,0.0,0.0,0.0,0.0,0.0,0.0,9999.0,0.0,0.0,0.0,0.0,0.0,0.0,9999.0,0.0,0.0,0.0,0.0,0.0,0.0,9999.0,0.0,0.0,0.0,0.0,0.0,0.0,9999.0,0.0,0.0,0.0,0.0,0.0,0.0,9999.0,0.0,0.0,0.0,0.0,0.0,0.0,9999.0
1549409014549992506,33430,1549409013662307013,map,gps_link,-1.32606591296,2.31548146438,209.734,0.0,0.0,0.0,1.0,0.0001,0.0,0.0,0.0,0.0,0.0,0.0,0.0001,0.0,0.0,0.0,0.0,0.0,0.0,0.0001,0.0,0.0,0.0,0.0,0.0,0.0,99999.0,0.0,0.0,0.0,0.0,0.0,0.0,99999.0,0.0,0.0,0.0,0.0,0.0,0.0,99999.0,0.0,0.0,0.0,0.0,0.0,0.0,9999.0,0.0,0.0,0.0,0.0,0.0,0.0,9999.0,0.0,0.0,0.0,0.0,0.0,0.0,9999.0,0.0,0.0,0.0,0.0,0.0,0.0,9999.0,0.0,0.0,0.0,0.0,0.0,0.0,9999.0,0.0,0.0,0.0,0.0,0.0,0.0,9999.0
1549409014550007909,33431,1549409013691001263,map,gps_link,-1.32606591296,2.31548146438,209.734,0.0,0.0,0.0,1.0,0.0001,0.0,0.0,0.0,0.0,0.0,0.0,0.0001,0.0,0.0,0.0,0.0,0.0,0.0,0.0001,0.0,0.0,0.0,0.0,0.0,0.0,99999.0,0.0,0.0,0.0,0.0,0.0,0.0,99999.0,0.0,0.0,0.0,0.0,0.0,0.0,99999.0,0.0,0.0,0.0,0.0,0.0,0.0,9999.0,0.0,0.0,0.0,0.0,0.0,0.0,9999.0,0.0,0.0,0.0,0.0,0.0,0.0,9999.0,0.0,0.0,0.0,0.0,0.0,0.0,9999.0,0.0,0.0,0.0,0.0,0.0,0.0,9999.0,0.0,0.0,0.0,0.0,0.0,0.0,9999.0
1549409014550017433,33432,1549409013711492763,map,gps_link,-1.32606591296,2.31548146438,209.734,0.0,0.0,0.0,1.0,0.0001,0.0,0.0,0.0,0.0,0.0,0.0,0.0001,0.0,0.0,0.0,0.0,0.0,0.0,0.0001,0.0,0.0,0.0,0.0,0.0,0.0,99999.0,0.0,0.0,0.0,0.0,0.0,0.0,99999.0,0.0,0.0,0.0,0.0,0.0,0.0,99999.0,0.0,0.0,0.0,0.0,0.0,0.0,9999.0,0.0,0.0,0.0,0.0,0.0,0.0,9999.0,0.0,0.0,0.0,0.0,0.0,0.0,9999.0,0.0,0.0,0.0,0.0,0.0,0.0,9999.0,0.0,0.0,0.0,0.0,0.0,0.0,9999.0,0.0,0.0,0.0,0.0,0.0,0.0,9999.0
1549409014550024069,33433,1549409013744141679,map,gps_link,-1.32606591296,2.31548146438,209.734,0.0,0.0,0.0,1.0,0.0001,0.0,0.0,0.0,0.0,0.0,0.0,0.0001,0.0,0.0,0.0,0.0,0.0,0.0,0.0001,0.0,0.0,0.0,0.0,0.0,0.0,99999.0,0.0,0.0,0.0,0.0,0.0,0.0,99999.0,0.0,0.0,0.0,0.0,0.0,0.0,99999.0,0.0,0.0,0.0,0.0,0.0,0.0,9999.0,0.0,0.0,0.0,0.0,0.0,0.0,9999.0,0.0,0.0,0.0,0.0,0.0,0.0,9999.0,0.0,0.0,0.0,0.0,0.0,0.0,9999.0,0.0,0.0,0.0,0.0,0.0,0.0,9999.0,0.0,0.0,0.0,0.0,0.0,0.0,9999.0
1549409014550029471,33434,1549409013764600679,map,gps_link,-1.32642116514,2.31345519703,209.734,0.0,0.0,0.0,1.0,0.0001,0.0,0.0,0.0,0.0,0.0,0.0,0.0001,0.0,0.0,0.0,0.0,0.0,0.0,0.0001,0.0,0.0,0.0,0.0,0.0,0.0,99999.0,0.0,0.0,0.0,0.0,0.0,0.0,99999.0,0.0,0.0,0.0,0.0,0.0,0.0,99999.0,0.0,0.0,0.0,0.0,0.0,0.0,9999.0,0.0,0.0,0.0,0.0,0.0,0.0,9999.0,0.0,0.0,0.0,0.0,0.0,0.0,9999.0,0.0,0.0,0.0,0.0,0.0,0.0,9999.0,0.0,0.0,0.0,0.0,0.0,0.0,9999.0,0.0,0.0,0.0,0.0,0.0,0.0,9999.0
1549409014550035284,33435,1549409013808742429,map,gps_link,-1.32642116514,2.31345519703,209.734,0.0,0.0,0.0,1.0,0.0001,0.0,0.0,0.0,0.0,0.0,0.0,0.0001,0.0,0.0,0.0,0.0,0.0,0.0,0.0001,0.0,0.0,0.0,0.0,0.0,0.0,99999.0,0.0,0.0,0.0,0.0,0.0,0.0,99999.0,0.0,0.0,0.0,0.0,0.0,0.0,99999.0,0.0,0.0,0.0,0.0,0.0,0.0,9999.0,0.0,0.0,0.0,0.0,0.0,0.0,9999.0,0.0,0.0,0.0,0.0,0.0,0.0,9999.0,0.0,0.0,0.0,0.0,0.0,0.0,9999.0,0.0,0.0,0.0,0.0,0.0,0.0,9999.0,0.0,0.0,0.0,0.0,0.0,0.0,9999.0
1549409014550040512,33436,1549409013833695179,map,gps_link,-1.32642116514,2.31345519703,209.734,0.0,0.0,0.0,1.0,0.0001,0.0,0.0,0.0,0.0,0.0,0.0,0.0001,0.0,0.0,0.0,0.0,0.0,0.0,0.0001,0.0,0.0,0.0,0.0,0.0,0.0,99999.0,0.0,0.0,0.0,0.0,0.0,0.0,99999.0,0.0,0.0,0.0,0.0,0.0,0.0,99999.0,0.0,0.0,0.0,0.0,0.0,0.0,9999.0,0.0,0.0,0.0,0.0,0.0,0.0,9999.0,0.0,0.0,0.0,0.0,0.0,0.0,9999.0,0.0,0.0,0.0,0.0,0.0,0.0,9999.0,0.0,0.0,0.0,0.0,0.0,0.0,9999.0,0.0,0.0,0.0,0.0,0.0,0.0,9999.0
1549409014550049204,33437,1549409013859053512,map,gps_link,-1.32642116514,2.31345519703,209.734,0.0,0.0,0.0,1.0,0.0001,0.0,0.0,0.0,0.0,0.0,0.0,0.0001,0.0,0.0,0.0,0.0,0.0,0.0,0.0001,0.0,0.0,0.0,0.0,0.0,0.0,99999.0,0.0,0.0,0.0,0.0,0.0,0.0,99999.0,0.0,0.0,0.0,0.0,0.0,0.0,99999.0,0.0,0.0,0.0,0.0,0.0,0.0,9999.0,0.0,0.0,0.0,0.0,0.0,0.0,9999.0,0.0,0.0,0.0,0.0,0.0,0.0,9999.0,0.0,0.0,0.0,0.0,0.0,0.0,9999.0,0.0,0.0,0.0,0.0,0.0,0.0,9999.0,0.0,0.0,0.0,0.0,0.0,0.0,9999.0
1549409014550054742,33438,1549409013883764762,map,gps_link,-1.32765793323,2.31329890899,209.73,0.0,0.0,0.0,1.0,0.0001,0.0,0.0,0.0,0.0,0.0,0.0,0.0001,0.0,0.0,0.0,0.0,0.0,0.0,0.0001,0.0,0.0,0.0,0.0,0.0,0.0,99999.0,0.0,0.0,0.0,0.0,0.0,0.0,99999.0,0.0,0.0,0.0,0.0,0.0,0.0,99999.0,0.0,0.0,0.0,0.0,0.0,0.0,9999.0,0.0,0.0,0.0,0.0,0.0,0.0,9999.0,0.0,0.0,0.0,0.0,0.0,0.0,9999.0,0.0,0.0,0.0,0.0,0.0,0.0,9999.0,0.0,0.0,0.0,0.0,0.0,0.0,9999.0,0.0,0.0,0.0,0.0,0.0,0.0,9999.0
1549409014550060109,33439,1549409013908729846,map,gps_link,-1.32765793323,2.31329890899,209.73,0.0,0.0,0.0,1.0,0.0001,0.0,0.0,0.0,0.0,0.0,0.0,0.0001,0.0,0.0,0.0,0.0,0.0,0.0,0.0001,0.0,0.0,0.0,0.0,0.0,0.0,99999.0,0.0,0.0,0.0,0.0,0.0,0.0,99999.0,0.0,0.0,0.0,0.0,0.0,0.0,99999.0,0.0,0.0,0.0,0.0,0.0,0.0,9999.0,0.0,0.0,0.0,0.0,0.0,0.0,9999.0,0.0,0.0,0.0,0.0,0.0,0.0,9999.0,0.0,0.0,0.0,0.0,0.0,0.0,9999.0,0.0,0.0,0.0,0.0,0.0,0.0,9999.0,0.0,0.0,0.0,0.0,0.0,0.0,9999.0
1549409014550065246,33440,1549409013933694512,map,gps_link,-1.32765793323,2.31329890899,209.73,0.0,0.0,0.0,1.0,0.0001,0.0,0.0,0.0,0.0,0.0,0.0,0.0001,0.0,0.0,0.0,0.0,0.0,0.0,0.0001,0.0,0.0,0.0,0.0,0.0,0.0,99999.0,0.0,0.0,0.0,0.0,0.0,0.0,99999.0,0.0,0.0,0.0,0.0,0.0,0.0,99999.0,0.0,0.0,0.0,0.0,0.0,0.0,9999.0,0.0,0.0,0.0,0.0,0.0,0.0,9999.0,0.0,0.0,0.0,0.0,0.0,0.0,9999.0,0.0,0.0,0.0,0.0,0.0,0.0,9999.0,0.0,0.0,0.0,0.0,0.0,0.0,9999.0,0.0,0.0,0.0,0.0,0.0,0.0,9999.0
1549409014550073487,33441,1549409013959142096,map,gps_link,-1.32765793323,2.31329890899,209.73,0.0,0.0,0.0,1.0,0.0001,0.0,0.0,0.0,0.0,0.0,0.0,0.0001,0.0,0.0,0.0,0.0,0.0,0.0,0.0001,0.0,0.0,0.0,0.0,0.0,0.0,99999.0,0.0,0.0,0.0,0.0,0.0,0.0,99999.0,0.0,0.0,0.0,0.0,0.0,0.0,99999.0,0.0,0.0,0.0,0.0,0.0,0.0,9999.0,0.0,0.0,0.0,0.0,0.0,0.0,9999.0,0.0,0.0,0.0,0.0,0.0,0.0,9999.0,0.0,0.0,0.0,0.0,0.0,0.0,9999.0,0.0,0.0,0.0,0.0,0.0,0.0,9999.0,0.0,0.0,0.0,0.0,0.0,0.0,9999.0
1549409014550250377,33442,1549409013983698596,map,gps_link,-1.32717432803,2.31421247311,209.735,0.0,0.0,0.0,1.0,0.0001,0.0,0.0,0.0,0.0,0.0,0.0,0.0001,0.0,0.0,0.0,0.0,0.0,0.0,0.0001,0.0,0.0,0.0,0.0,0.0,0.0,99999.0,0.0,0.0,0.0,0.0,0.0,0.0,99999.0,0.0,0.0,0.0,0.0,0.0,0.0,99999.0,0.0,0.0,0.0,0.0,0.0,0.0,9999.0,0.0,0.0,0.0,0.0,0.0,0.0,9999.0,0.0,0.0,0.0,0.0,0.0,0.0,9999.0,0.0,0.0,0.0,0.0,0.0,0.0,9999.0,0.0,0.0,0.0,0.0,0.0,0.0,9999.0,0.0,0.0,0.0,0.0,0.0,0.0,9999.0
1549409014550266336,33443,1549409014008741096,map,gps_link,-1.32717432803,2.31421247311,209.735,0.0,0.0,0.0,1.0,0.0001,0.0,0.0,0.0,0.0,0.0,0.0,0.0001,0.0,0.0,0.0,0.0,0.0,0.0,0.0001,0.0,0.0,0.0,0.0,0.0,0.0,99999.0,0.0,0.0,0.0,0.0,0.0,0.0,99999.0,0.0,0.0,0.0,0.0,0.0,0.0,99999.0,0.0,0.0,0.0,0.0,0.0,0.0,9999.0,0.0,0.0,0.0,0.0,0.0,0.0,9999.0,0.0,0.0,0.0,0.0,0.0,0.0,9999.0,0.0,0.0,0.0,0.0,0.0,0.0,9999.0,0.0,0.0,0.0,0.0,0.0,0.0,9999.0,0.0,0.0,0.0,0.0,0.0,0.0,9999.0
1549409014550455881,33444,1549409014034404262,map,gps_link,-1.32717432803,2.31421247311,209.735,0.0,0.0,0.0,1.0,0.0001,0.0,0.0,0.0,0.0,0.0,0.0,0.0001,0.0,0.0,0.0,0.0,0.0,0.0,0.0001,0.0,0.0,0.0,0.0,0.0,0.0,99999.0,0.0,0.0,0.0,0.0,0.0,0.0,99999.0,0.0,0.0,0.0,0.0,0.0,0.0,99999.0,0.0,0.0,0.0,0.0,0.0,0.0,9999.0,0.0,0.0,0.0,0.0,0.0,0.0,9999.0,0.0,0.0,0.0,0.0,0.0,0.0,9999.0,0.0,0.0,0.0,0.0,0.0,0.0,9999.0,0.0,0.0,0.0,0.0,0.0,0.0,9999.0,0.0,0.0,0.0,0.0,0.0,0.0,9999.0
1549409014550460903,33445,1549409014058875679,map,gps_link,-1.32717432803,2.31421247311,209.735,0.0,0.0,0.0,1.0,0.0001,0.0,0.0,0.0,0.0,0.0,0.0,0.0001,0.0,0.0,0.0,0.0,0.0,0.0,0.0001,0.0,0.0,0.0,0.0,0.0,0.0,99999.0,0.0,0.0,0.0,0.0,0.0,0.0,99999.0,0.0,0.0,0.0,0.0,0.0,0.0,99999.0,0.0,0.0,0.0,0.0,0.0,0.0,9999.0,0.0,0.0,0.0,0.0,0.0,0.0,9999.0,0.0,0.0,0.0,0.0,0.0,0.0,9999.0,0.0,0.0,0.0,0.0,0.0,0.0,9999.0,0.0,0.0,0.0,0.0,0.0,0.0,9999.0,0.0,0.0,0.0,0.0,0.0,0.0,9999.0
1549409014550468118,33446,1549409014083846012,map,gps_link,-1.32750815805,2.31311048195,209.735,0.0,0.0,0.0,1.0,0.0001,0.0,0.0,0.0,0.0,0.0,0.0,0.0001,0.0,0.0,0.0,0.0,0.0,0.0,0.0001,0.0,0.0,0.0,0.0,0.0,0.0,99999.0,0.0,0.0,0.0,0.0,0.0,0.0,99999.0,0.0,0.0,0.0,0.0,0.0,0.0,99999.0,0.0,0.0,0.0,0.0,0.0,0.0,9999.0,0.0,0.0,0.0,0.0,0.0,0.0,9999.0,0.0,0.0,0.0,0.0,0.0,0.0,9999.0,0.0,0.0,0.0,0.0,0.0,0.0,9999.0,0.0,0.0,0.0,0.0,0.0,0.0,9999.0,0.0,0.0,0.0,0.0,0.0,0.0,9999.0
1549409014550481477,33447,1549409014108746512,map,gps_link,-1.32750815805,2.31311048195,209.735,0.0,0.0,0.0,1.0,0.0001,0.0,0.0,0.0,0.0,0.0,0.0,0.0001,0.0,0.0,0.0,0.0,0.0,0.0,0.0001,0.0,0.0,0.0,0.0,0.0,0.0,99999.0,0.0,0.0,0.0,0.0,0.0,0.0,99999.0,0.0,0.0,0.0,0.0,0.0,0.0,99999.0,0.0,0.0,0.0,0.0,0.0,0.0,9999.0,0.0,0.0,0.0,0.0,0.0,0.0,9999.0,0.0,0.0,0.0,0.0,0.0,0.0,9999.0,0.0,0.0,0.0,0.0,0.0,0.0,9999.0,0.0,0.0,0.0,0.0,0.0,0.0,9999.0,0.0,0.0,0.0,0.0,0.0,0.0,9999.0
1549409014550499717,33448,1549409014133849762,map,gps_link,-1.32750815805,2.31311048195,209.735,0.0,0.0,0.0,1.0,0.0001,0.0,0.0,0.0,0.0,0.0,0.0,0.0001,0.0,0.0,0.0,0.0,0.0,0.0,0.0001,0.0,0.0,0.0,0.0,0.0,0.0,99999.0,0.0,0.0,0.0,0.0,0.0,0.0,99999.0,0.0,0.0,0.0,0.0,0.0,0.0,99999.0,0.0,0.0,0.0,0.0,0.0,0.0,9999.0,0.0,0.0,0.0,0.0,0.0,0.0,9999.0,0.0,0.0,0.0,0.0,0.0,0.0,9999.0,0.0,0.0,0.0,0.0,0.0,0.0,9999.0,0.0,0.0,0.0,0.0,0.0,0.0,9999.0,0.0,0.0,0.0,0.0,0.0,0.0,9999.0
1549409014550522414,33449,1549409014158974012,map,gps_link,-1.32750815805,2.31311048195,209.735,0.0,0.0,0.0,1.0,0.0001,0.0,0.0,0.0,0.0,0.0,0.0,0.0001,0.0,0.0,0.0,0.0,0.0,0.0,0.0001,0.0,0.0,0.0,0.0,0.0,0.0,99999.0,0.0,0.0,0.0,0.0,0.0,0.0,99999.0,0.0,0.0,0.0,0.0,0.0,0.0,99999.0,0.0,0.0,0.0,0.0,0.0,0.0,9999.0,0.0,0.0,0.0,0.0,0.0,0.0,9999.0,0.0,0.0,0.0,0.0,0.0,0.0,9999.0,0.0,0.0,0.0,0.0,0.0,0.0,9999.0,0.0,0.0,0.0,0.0,0.0,0.0,9999.0,0.0,0.0,0.0,0.0,0.0,0.0,9999.0
1549409014550537990,33450,1549409014183842512,map,gps_link,-1.32452102628,2.31563061196,209.738,0.0,0.0,0.0,1.0,0.0001,0.0,0.0,0.0,0.0,0.0,0.0,0.0001,0.0,0.0,0.0,0.0,0.0,0.0,0.0001,0.0,0.0,0.0,0.0,0.0,0.0,99999.0,0.0,0.0,0.0,0.0,0.0,0.0,99999.0,0.0,0.0,0.0,0.0,0.0,0.0,99999.0,0.0,0.0,0.0,0.0,0.0,0.0,9999.0,0.0,0.0,0.0,0.0,0.0,0.0,9999.0,0.0,0.0,0.0,0.0,0.0,0.0,9999.0,0.0,0.0,0.0,0.0,0.0,0.0,9999.0,0.0,0.0,0.0,0.0,0.0,0.0,9999.0,0.0,0.0,0.0,0.0,0.0,0.0,9999.0
1549409014553554271,33451,1549409014208758929,map,gps_link,-1.32452102628,2.31563061196,209.738,0.0,0.0,0.0,1.0,0.0001,0.0,0.0,0.0,0.0,0.0,0.0,0.0001,0.0,0.0,0.0,0.0,0.0,0.0,0.0001,0.0,0.0,0.0,0.0,0.0,0.0,99999.0,0.0,0.0,0.0,0.0,0.0,0.0,99999.0,0.0,0.0,0.0,0.0,0.0,0.0,99999.0,0.0,0.0,0.0,0.0,0.0,0.0,9999.0,0.0,0.0,0.0,0.0,0.0,0.0,9999.0,0.0,0.0,0.0,0.0,0.0,0.0,9999.0,0.0,0.0,0.0,0.0,0.0,0.0,9999.0,0.0,0.0,0.0,0.0,0.0,0.0,9999.0,0.0,0.0,0.0,0.0,0.0,0.0,9999.0
1549409014555250514,33452,1549409014233716929,map,gps_link,-1.32452102628,2.31563061196,209.738,0.0,0.0,0.0,1.0,0.0001,0.0,0.0,0.0,0.0,0.0,0.0,0.0001,0.0,0.0,0.0,0.0,0.0,0.0,0.0001,0.0,0.0,0.0,0.0,0.0,0.0,99999.0,0.0,0.0,0.0,0.0,0.0,0.0,99999.0,0.0,0.0,0.0,0.0,0.0,0.0,99999.0,0.0,0.0,0.0,0.0,0.0,0.0,9999.0,0.0,0.0,0.0,0.0,0.0,0.0,9999.0,0.0,0.0,0.0,0.0,0.0,0.0,9999.0,0.0,0.0,0.0,0.0,0.0,0.0,9999.0,0.0,0.0,0.0,0.0,0.0,0.0,9999.0,0.0,0.0,0.0,0.0,0.0,0.0,9999.0
1549409014555255688,33453,1549409014258697262,map,gps_link,-1.32452102628,2.31563061196,209.738,0.0,0.0,0.0,1.0,0.0001,0.0,0.0,0.0,0.0,0.0,0.0,0.0001,0.0,0.0,0.0,0.0,0.0,0.0,0.0001,0.0,0.0,0.0,0.0,0.0,0.0,99999.0,0.0,0.0,0.0,0.0,0.0,0.0,99999.0,0.0,0.0,0.0,0.0,0.0,0.0,99999.0,0.0,0.0,0.0,0.0,0.0,0.0,9999.0,0.0,0.0,0.0,0.0,0.0,0.0,9999.0,0.0,0.0,0.0,0.0,0.0,0.0,9999.0,0.0,0.0,0.0,0.0,0.0,0.0,9999.0,0.0,0.0,0.0,0.0,0.0,0.0,9999.0,0.0,0.0,0.0,0.0,0.0,0.0,9999.0
1549409014555264217,33454,1549409014283700846,map,gps_link,-1.32452959556,2.31526090065,209.739,0.0,0.0,0.0,1.0,0.0001,0.0,0.0,0.0,0.0,0.0,0.0,0.0001,0.0,0.0,0.0,0.0,0.0,0.0,0.0001,0.0,0.0,0.0,0.0,0.0,0.0,99999.0,0.0,0.0,0.0,0.0,0.0,0.0,99999.0,0.0,0.0,0.0,0.0,0.0,0.0,99999.0,0.0,0.0,0.0,0.0,0.0,0.0,9999.0,0.0,0.0,0.0,0.0,0.0,0.0,9999.0,0.0,0.0,0.0,0.0,0.0,0.0,9999.0,0.0,0.0,0.0,0.0,0.0,0.0,9999.0,0.0,0.0,0.0,0.0,0.0,0.0,9999.0,0.0,0.0,0.0,0.0,0.0,0.0,9999.0
1549409014555270158,33455,1549409014308752179,map,gps_link,-1.32452959556,2.31526090065,209.739,0.0,0.0,0.0,1.0,0.0001,0.0,0.0,0.0,0.0,0.0,0.0,0.0001,0.0,0.0,0.0,0.0,0.0,0.0,0.0001,0.0,0.0,0.0,0.0,0.0,0.0,99999.0,0.0,0.0,0.0,0.0,0.0,0.0,99999.0,0.0,0.0,0.0,0.0,0.0,0.0,99999.0,0.0,0.0,0.0,0.0,0.0,0.0,9999.0,0.0,0.0,0.0,0.0,0.0,0.0,9999.0,0.0,0.0,0.0,0.0,0.0,0.0,9999.0,0.0,0.0,0.0,0.0,0.0,0.0,9999.0,0.0,0.0,0.0,0.0,0.0,0.0,9999.0,0.0,0.0,0.0,0.0,0.0,0.0,9999.0
1549409014555284159,33456,1549409014333754012,map,gps_link,-1.32452959556,2.31526090065,209.739,0.0,0.0,0.0,1.0,0.0001,0.0,0.0,0.0,0.0,0.0,0.0,0.0001,0.0,0.0,0.0,0.0,0.0,0.0,0.0001,0.0,0.0,0.0,0.0,0.0,0.0,99999.0,0.0,0.0,0.0,0.0,0.0,0.0,99999.0,0.0,0.0,0.0,0.0,0.0,0.0,99999.0,0.0,0.0,0.0,0.0,0.0,0.0,9999.0,0.0,0.0,0.0,0.0,0.0,0.0,9999.0,0.0,0.0,0.0,0.0,0.0,0.0,9999.0,0.0,0.0,0.0,0.0,0.0,0.0,9999.0,0.0,0.0,0.0,0.0,0.0,0.0,9999.0,0.0,0.0,0.0,0.0,0.0,0.0,9999.0
1549409014555289456,33457,1549409014358761846,map,gps_link,-1.32452959556,2.31526090065,209.739,0.0,0.0,0.0,1.0,0.0001,0.0,0.0,0.0,0.0,0.0,0.0,0.0001,0.0,0.0,0.0,0.0,0.0,0.0,0.0001,0.0,0.0,0.0,0.0,0.0,0.0,99999.0,0.0,0.0,0.0,0.0,0.0,0.0,99999.0,0.0,0.0,0.0,0.0,0.0,0.0,99999.0,0.0,0.0,0.0,0.0,0.0,0.0,9999.0,0.0,0.0,0.0,0.0,0.0,0.0,9999.0,0.0,0.0,0.0,0.0,0.0,0.0,9999.0,0.0,0.0,0.0,0.0,0.0,0.0,9999.0,0.0,0.0,0.0,0.0,0.0,0.0,9999.0,0.0,0.0,0.0,0.0,0.0,0.0,9999.0
1549409014555310214,33458,1549409014383839679,map,gps_link,-1.32426003658,2.31359006045,209.738,0.0,0.0,0.0,1.0,0.0001,0.0,0.0,0.0,0.0,0.0,0.0,0.0001,0.0,0.0,0.0,0.0,0.0,0.0,0.0001,0.0,0.0,0.0,0.0,0.0,0.0,99999.0,0.0,0.0,0.0,0.0,0.0,0.0,99999.0,0.0,0.0,0.0,0.0,0.0,0.0,99999.0,0.0,0.0,0.0,0.0,0.0,0.0,9999.0,0.0,0.0,0.0,0.0,0.0,0.0,9999.0,0.0,0.0,0.0,0.0,0.0,0.0,9999.0,0.0,0.0,0.0,0.0,0.0,0.0,9999.0,0.0,0.0,0.0,0.0,0.0,0.0,9999.0,0.0,0.0,0.0,0.0,0.0,0.0,9999.0
1549409014555316402,33459,1549409014408837429,map,gps_link,-1.32426003658,2.31359006045,209.738,0.0,0.0,0.0,1.0,0.0001,0.0,0.0,0.0,0.0,0.0,0.0,0.0001,0.0,0.0,0.0,0.0,0.0,0.0,0.0001,0.0,0.0,0.0,0.0,0.0,0.0,99999.0,0.0,0.0,0.0,0.0,0.0,0.0,99999.0,0.0,0.0,0.0,0.0,0.0,0.0,99999.0,0.0,0.0,0.0,0.0,0.0,0.0,9999.0,0.0,0.0,0.0,0.0,0.0,0.0,9999.0,0.0,0.0,0.0,0.0,0.0,0.0,9999.0,0.0,0.0,0.0,0.0,0.0,0.0,9999.0,0.0,0.0,0.0,0.0,0.0,0.0,9999.0,0.0,0.0,0.0,0.0,0.0,0.0,9999.0
1549409014555340111,33460,1549409014433689679,map,gps_link,-1.32426003658,2.31359006045,209.738,0.0,0.0,0.0,1.0,0.0001,0.0,0.0,0.0,0.0,0.0,0.0,0.0001,0.0,0.0,0.0,0.0,0.0,0.0,0.0001,0.0,0.0,0.0,0.0,0.0,0.0,99999.0,0.0,0.0,0.0,0.0,0.0,0.0,99999.0,0.0,0.0,0.0,0.0,0.0,0.0,99999.0,0.0,0.0,0.0,0.0,0.0,0.0,9999.0,0.0,0.0,0.0,0.0,0.0,0.0,9999.0,0.0,0.0,0.0,0.0,0.0,0.0,9999.0,0.0,0.0,0.0,0.0,0.0,0.0,9999.0,0.0,0.0,0.0,0.0,0.0,0.0,9999.0,0.0,0.0,0.0,0.0,0.0,0.0,9999.0
1549409014555366589,33461,1549409014458871012,map,gps_link,-1.32426003658,2.31359006045,209.738,0.0,0.0,0.0,1.0,0.0001,0.0,0.0,0.0,0.0,0.0,0.0,0.0001,0.0,0.0,0.0,0.0,0.0,0.0,0.0001,0.0,0.0,0.0,0.0,0.0,0.0,99999.0,0.0,0.0,0.0,0.0,0.0,0.0,99999.0,0.0,0.0,0.0,0.0,0.0,0.0,99999.0,0.0,0.0,0.0,0.0,0.0,0.0,9999.0,0.0,0.0,0.0,0.0,0.0,0.0,9999.0,0.0,0.0,0.0,0.0,0.0,0.0,9999.0,0.0,0.0,0.0,0.0,0.0,0.0,9999.0,0.0,0.0,0.0,0.0,0.0,0.0,9999.0,0.0,0.0,0.0,0.0,0.0,0.0,9999.0
1549409014595839266,33462,1549409014483739512,map,gps_link,-1.32545824046,2.3150974703,209.74,0.0,0.0,0.0,1.0,0.0001,0.0,0.0,0.0,0.0,0.0,0.0,0.0001,0.0,0.0,0.0,0.0,0.0,0.0,0.0001,0.0,0.0,0.0,0.0,0.0,0.0,99999.0,0.0,0.0,0.0,0.0,0.0,0.0,99999.0,0.0,0.0,0.0,0.0,0.0,0.0,99999.0,0.0,0.0,0.0,0.0,0.0,0.0,9999.0,0.0,0.0,0.0,0.0,0.0,0.0,9999.0,0.0,0.0,0.0,0.0,0.0,0.0,9999.0,0.0,0.0,0.0,0.0,0.0,0.0,9999.0,0.0,0.0,0.0,0.0,0.0,0.0,9999.0,0.0,0.0,0.0,0.0,0.0,0.0,9999.0
1549409014635561201,33463,1549409014508860262,map,gps_link,-1.32545824046,2.3150974703,209.74,0.0,0.0,0.0,1.0,0.0001,0.0,0.0,0.0,0.0,0.0,0.0,0.0001,0.0,0.0,0.0,0.0,0.0,0.0,0.0001,0.0,0.0,0.0,0.0,0.0,0.0,99999.0,0.0,0.0,0.0,0.0,0.0,0.0,99999.0,0.0,0.0,0.0,0.0,0.0,0.0,99999.0,0.0,0.0,0.0,0.0,0.0,0.0,9999.0,0.0,0.0,0.0,0.0,0.0,0.0,9999.0,0.0,0.0,0.0,0.0,0.0,0.0,9999.0,0.0,0.0,0.0,0.0,0.0,0.0,9999.0,0.0,0.0,0.0,0.0,0.0,0.0,9999.0,0.0,0.0,0.0,0.0,0.0,0.0,9999.0
1549409014635576853,33464,1549409014533879512,map,gps_link,-1.32545824046,2.3150974703,209.74,0.0,0.0,0.0,1.0,0.0001,0.0,0.0,0.0,0.0,0.0,0.0,0.0001,0.0,0.0,0.0,0.0,0.0,0.0,0.0001,0.0,0.0,0.0,0.0,0.0,0.0,99999.0,0.0,0.0,0.0,0.0,0.0,0.0,99999.0,0.0,0.0,0.0,0.0,0.0,0.0,99999.0,0.0,0.0,0.0,0.0,0.0,0.0,9999.0,0.0,0.0,0.0,0.0,0.0,0.0,9999.0,0.0,0.0,0.0,0.0,0.0,0.0,9999.0,0.0,0.0,0.0,0.0,0.0,0.0,9999.0,0.0,0.0,0.0,0.0,0.0,0.0,9999.0,0.0,0.0,0.0,0.0,0.0,0.0,9999.0
1549409014698336887,33465,1549409014558911429,map,gps_link,-1.32545824046,2.3150974703,209.74,0.0,0.0,0.0,1.0,0.0001,0.0,0.0,0.0,0.0,0.0,0.0,0.0001,0.0,0.0,0.0,0.0,0.0,0.0,0.0001,0.0,0.0,0.0,0.0,0.0,0.0,99999.0,0.0,0.0,0.0,0.0,0.0,0.0,99999.0,0.0,0.0,0.0,0.0,0.0,0.0,99999.0,0.0,0.0,0.0,0.0,0.0,0.0,9999.0,0.0,0.0,0.0,0.0,0.0,0.0,9999.0,0.0,0.0,0.0,0.0,0.0,0.0,9999.0,0.0,0.0,0.0,0.0,0.0,0.0,9999.0,0.0,0.0,0.0,0.0,0.0,0.0,9999.0,0.0,0.0,0.0,0.0,0.0,0.0,9999.0
1549409014698342005,33466,1549409014583951762,map,gps_link,-1.32236846595,2.31539576361,209.737,0.0,0.0,0.0,1.0,0.0001,0.0,0.0,0.0,0.0,0.0,0.0,0.0001,0.0,0.0,0.0,0.0,0.0,0.0,0.0001,0.0,0.0,0.0,0.0,0.0,0.0,99999.0,0.0,0.0,0.0,0.0,0.0,0.0,99999.0,0.0,0.0,0.0,0.0,0.0,0.0,99999.0,0.0,0.0,0.0,0.0,0.0,0.0,9999.0,0.0,0.0,0.0,0.0,0.0,0.0,9999.0,0.0,0.0,0.0,0.0,0.0,0.0,9999.0,0.0,0.0,0.0,0.0,0.0,0.0,9999.0,0.0,0.0,0.0,0.0,0.0,0.0,9999.0,0.0,0.0,0.0,0.0,0.0,0.0,9999.0
1549409014737211375,33467,1549409014608857429,map,gps_link,-1.32236846595,2.31539576361,209.737,0.0,0.0,0.0,1.0,0.0001,0.0,0.0,0.0,0.0,0.0,0.0,0.0001,0.0,0.0,0.0,0.0,0.0,0.0,0.0001,0.0,0.0,0.0,0.0,0.0,0.0,99999.0,0.0,0.0,0.0,0.0,0.0,0.0,99999.0,0.0,0.0,0.0,0.0,0.0,0.0,99999.0,0.0,0.0,0.0,0.0,0.0,0.0,9999.0,0.0,0.0,0.0,0.0,0.0,0.0,9999.0,0.0,0.0,0.0,0.0,0.0,0.0,9999.0,0.0,0.0,0.0,0.0,0.0,0.0,9999.0,0.0,0.0,0.0,0.0,0.0,0.0,9999.0,0.0,0.0,0.0,0.0,0.0,0.0,9999.0
1549409014737217091,33468,1549409014634641596,map,gps_link,-1.32236846595,2.31539576361,209.737,0.0,0.0,0.0,1.0,0.0001,0.0,0.0,0.0,0.0,0.0,0.0,0.0001,0.0,0.0,0.0,0.0,0.0,0.0,0.0001,0.0,0.0,0.0,0.0,0.0,0.0,99999.0,0.0,0.0,0.0,0.0,0.0,0.0,99999.0,0.0,0.0,0.0,0.0,0.0,0.0,99999.0,0.0,0.0,0.0,0.0,0.0,0.0,9999.0,0.0,0.0,0.0,0.0,0.0,0.0,9999.0,0.0,0.0,0.0,0.0,0.0,0.0,9999.0,0.0,0.0,0.0,0.0,0.0,0.0,9999.0,0.0,0.0,0.0,0.0,0.0,0.0,9999.0,0.0,0.0,0.0,0.0,0.0,0.0,9999.0
1549409014761109405,33469,1549409014658838679,map,gps_link,-1.32236846595,2.31539576361,209.737,0.0,0.0,0.0,1.0,0.0001,0.0,0.0,0.0,0.0,0.0,0.0,0.0001,0.0,0.0,0.0,0.0,0.0,0.0,0.0001,0.0,0.0,0.0,0.0,0.0,0.0,99999.0,0.0,0.0,0.0,0.0,0.0,0.0,99999.0,0.0,0.0,0.0,0.0,0.0,0.0,99999.0,0.0,0.0,0.0,0.0,0.0,0.0,9999.0,0.0,0.0,0.0,0.0,0.0,0.0,9999.0,0.0,0.0,0.0,0.0,0.0,0.0,9999.0,0.0,0.0,0.0,0.0,0.0,0.0,9999.0,0.0,0.0,0.0,0.0,0.0,0.0,9999.0,0.0,0.0,0.0,0.0,0.0,0.0,9999.0
1549409014783202768,33470,1549409014683924679,map,gps_link,-1.32193199312,2.31427591853,209.731,0.0,0.0,0.0,1.0,0.0001,0.0,0.0,0.0,0.0,0.0,0.0,0.0001,0.0,0.0,0.0,0.0,0.0,0.0,0.0001,0.0,0.0,0.0,0.0,0.0,0.0,99999.0,0.0,0.0,0.0,0.0,0.0,0.0,99999.0,0.0,0.0,0.0,0.0,0.0,0.0,99999.0,0.0,0.0,0.0,0.0,0.0,0.0,9999.0,0.0,0.0,0.0,0.0,0.0,0.0,9999.0,0.0,0.0,0.0,0.0,0.0,0.0,9999.0,0.0,0.0,0.0,0.0,0.0,0.0,9999.0,0.0,0.0,0.0,0.0,0.0,0.0,9999.0,0.0,0.0,0.0,0.0,0.0,0.0,9999.0
1549409014829754649,33471,1549409014708719096,map,gps_link,-1.32193199312,2.31427591853,209.731,0.0,0.0,0.0,1.0,0.0001,0.0,0.0,0.0,0.0,0.0,0.0,0.0001,0.0,0.0,0.0,0.0,0.0,0.0,0.0001,0.0,0.0,0.0,0.0,0.0,0.0,99999.0,0.0,0.0,0.0,0.0,0.0,0.0,99999.0,0.0,0.0,0.0,0.0,0.0,0.0,99999.0,0.0,0.0,0.0,0.0,0.0,0.0,9999.0,0.0,0.0,0.0,0.0,0.0,0.0,9999.0,0.0,0.0,0.0,0.0,0.0,0.0,9999.0,0.0,0.0,0.0,0.0,0.0,0.0,9999.0,0.0,0.0,0.0,0.0,0.0,0.0,9999.0,0.0,0.0,0.0,0.0,0.0,0.0,9999.0
1549409014829760467,33472,1549409014733706596,map,gps_link,-1.32193199312,2.31427591853,209.731,0.0,0.0,0.0,1.0,0.0001,0.0,0.0,0.0,0.0,0.0,0.0,0.0001,0.0,0.0,0.0,0.0,0.0,0.0,0.0001,0.0,0.0,0.0,0.0,0.0,0.0,99999.0,0.0,0.0,0.0,0.0,0.0,0.0,99999.0,0.0,0.0,0.0,0.0,0.0,0.0,99999.0,0.0,0.0,0.0,0.0,0.0,0.0,9999.0,0.0,0.0,0.0,0.0,0.0,0.0,9999.0,0.0,0.0,0.0,0.0,0.0,0.0,9999.0,0.0,0.0,0.0,0.0,0.0,0.0,9999.0,0.0,0.0,0.0,0.0,0.0,0.0,9999.0,0.0,0.0,0.0,0.0,0.0,0.0,9999.0
1549409014881153035,33473,1549409014758737846,map,gps_link,-1.32193199312,2.31427591853,209.731,0.0,0.0,0.0,1.0,0.0001,0.0,0.0,0.0,0.0,0.0,0.0,0.0001,0.0,0.0,0.0,0.0,0.0,0.0,0.0001,0.0,0.0,0.0,0.0,0.0,0.0,99999.0,0.0,0.0,0.0,0.0,0.0,0.0,99999.0,0.0,0.0,0.0,0.0,0.0,0.0,99999.0,0.0,0.0,0.0,0.0,0.0,0.0,9999.0,0.0,0.0,0.0,0.0,0.0,0.0,9999.0,0.0,0.0,0.0,0.0,0.0,0.0,9999.0,0.0,0.0,0.0,0.0,0.0,0.0,9999.0,0.0,0.0,0.0,0.0,0.0,0.0,9999.0,0.0,0.0,0.0,0.0,0.0,0.0,9999.0
1549409014881166206,33474,1549409014783837179,map,gps_link,-1.32238988928,2.31447148742,209.734,0.0,0.0,0.0,1.0,0.0001,0.0,0.0,0.0,0.0,0.0,0.0,0.0001,0.0,0.0,0.0,0.0,0.0,0.0,0.0001,0.0,0.0,0.0,0.0,0.0,0.0,99999.0,0.0,0.0,0.0,0.0,0.0,0.0,99999.0,0.0,0.0,0.0,0.0,0.0,0.0,99999.0,0.0,0.0,0.0,0.0,0.0,0.0,9999.0,0.0,0.0,0.0,0.0,0.0,0.0,9999.0,0.0,0.0,0.0,0.0,0.0,0.0,9999.0,0.0,0.0,0.0,0.0,0.0,0.0,9999.0,0.0,0.0,0.0,0.0,0.0,0.0,9999.0,0.0,0.0,0.0,0.0,0.0,0.0,9999.0
1549409014925989466,33475,1549409014809366179,map,gps_link,-1.32238988928,2.31447148742,209.734,0.0,0.0,0.0,1.0,0.0001,0.0,0.0,0.0,0.0,0.0,0.0,0.0001,0.0,0.0,0.0,0.0,0.0,0.0,0.0001,0.0,0.0,0.0,0.0,0.0,0.0,99999.0,0.0,0.0,0.0,0.0,0.0,0.0,99999.0,0.0,0.0,0.0,0.0,0.0,0.0,99999.0,0.0,0.0,0.0,0.0,0.0,0.0,9999.0,0.0,0.0,0.0,0.0,0.0,0.0,9999.0,0.0,0.0,0.0,0.0,0.0,0.0,9999.0,0.0,0.0,0.0,0.0,0.0,0.0,9999.0,0.0,0.0,0.0,0.0,0.0,0.0,9999.0,0.0,0.0,0.0,0.0,0.0,0.0,9999.0
1549409014925998150,33476,1549409014833873846,map,gps_link,-1.32238988928,2.31447148742,209.734,0.0,0.0,0.0,1.0,0.0001,0.0,0.0,0.0,0.0,0.0,0.0,0.0001,0.0,0.0,0.0,0.0,0.0,0.0,0.0001,0.0,0.0,0.0,0.0,0.0,0.0,99999.0,0.0,0.0,0.0,0.0,0.0,0.0,99999.0,0.0,0.0,0.0,0.0,0.0,0.0,99999.0,0.0,0.0,0.0,0.0,0.0,0.0,9999.0,0.0,0.0,0.0,0.0,0.0,0.0,9999.0,0.0,0.0,0.0,0.0,0.0,0.0,9999.0,0.0,0.0,0.0,0.0,0.0,0.0,9999.0,0.0,0.0,0.0,0.0,0.0,0.0,9999.0,0.0,0.0,0.0,0.0,0.0,0.0,9999.0
1549409014951444225,33477,1549409014858914846,map,gps_link,-1.32238988928,2.31447148742,209.734,0.0,0.0,0.0,1.0,0.0001,0.0,0.0,0.0,0.0,0.0,0.0,0.0001,0.0,0.0,0.0,0.0,0.0,0.0,0.0001,0.0,0.0,0.0,0.0,0.0,0.0,99999.0,0.0,0.0,0.0,0.0,0.0,0.0,99999.0,0.0,0.0,0.0,0.0,0.0,0.0,99999.0,0.0,0.0,0.0,0.0,0.0,0.0,9999.0,0.0,0.0,0.0,0.0,0.0,0.0,9999.0,0.0,0.0,0.0,0.0,0.0,0.0,9999.0,0.0,0.0,0.0,0.0,0.0,0.0,9999.0,0.0,0.0,0.0,0.0,0.0,0.0,9999.0,0.0,0.0,0.0,0.0,0.0,0.0,9999.0
1549409014987224504,33478,1549409014883699429,map,gps_link,-1.32083643205,2.31499034399,209.733,0.0,0.0,0.0,1.0,0.0001,0.0,0.0,0.0,0.0,0.0,0.0,0.0001,0.0,0.0,0.0,0.0,0.0,0.0,0.0001,0.0,0.0,0.0,0.0,0.0,0.0,99999.0,0.0,0.0,0.0,0.0,0.0,0.0,99999.0,0.0,0.0,0.0,0.0,0.0,0.0,99999.0,0.0,0.0,0.0,0.0,0.0,0.0,9999.0,0.0,0.0,0.0,0.0,0.0,0.0,9999.0,0.0,0.0,0.0,0.0,0.0,0.0,9999.0,0.0,0.0,0.0,0.0,0.0,0.0,9999.0,0.0,0.0,0.0,0.0,0.0,0.0,9999.0,0.0,0.0,0.0,0.0,0.0,0.0,9999.0
1549409014987239817,33479,1549409014908694596,map,gps_link,-1.32083643205,2.31499034399,209.733,0.0,0.0,0.0,1.0,0.0001,0.0,0.0,0.0,0.0,0.0,0.0,0.0001,0.0,0.0,0.0,0.0,0.0,0.0,0.0001,0.0,0.0,0.0,0.0,0.0,0.0,99999.0,0.0,0.0,0.0,0.0,0.0,0.0,99999.0,0.0,0.0,0.0,0.0,0.0,0.0,99999.0,0.0,0.0,0.0,0.0,0.0,0.0,9999.0,0.0,0.0,0.0,0.0,0.0,0.0,9999.0,0.0,0.0,0.0,0.0,0.0,0.0,9999.0,0.0,0.0,0.0,0.0,0.0,0.0,9999.0,0.0,0.0,0.0,0.0,0.0,0.0,9999.0,0.0,0.0,0.0,0.0,0.0,0.0,9999.0
1549409015028259504,33480,1549409014933699429,map,gps_link,-1.32083643205,2.31499034399,209.733,0.0,0.0,0.0,1.0,0.0001,0.0,0.0,0.0,0.0,0.0,0.0,0.0001,0.0,0.0,0.0,0.0,0.0,0.0,0.0001,0.0,0.0,0.0,0.0,0.0,0.0,99999.0,0.0,0.0,0.0,0.0,0.0,0.0,99999.0,0.0,0.0,0.0,0.0,0.0,0.0,99999.0,0.0,0.0,0.0,0.0,0.0,0.0,9999.0,0.0,0.0,0.0,0.0,0.0,0.0,9999.0,0.0,0.0,0.0,0.0,0.0,0.0,9999.0,0.0,0.0,0.0,0.0,0.0,0.0,9999.0,0.0,0.0,0.0,0.0,0.0,0.0,9999.0,0.0,0.0,0.0,0.0,0.0,0.0,9999.0
1549409015058794195,33481,1549409014958732096,map,gps_link,-1.32083643205,2.31499034399,209.733,0.0,0.0,0.0,1.0,0.0001,0.0,0.0,0.0,0.0,0.0,0.0,0.0001,0.0,0.0,0.0,0.0,0.0,0.0,0.0001,0.0,0.0,0.0,0.0,0.0,0.0,99999.0,0.0,0.0,0.0,0.0,0.0,0.0,99999.0,0.0,0.0,0.0,0.0,0.0,0.0,99999.0,0.0,0.0,0.0,0.0,0.0,0.0,9999.0,0.0,0.0,0.0,0.0,0.0,0.0,9999.0,0.0,0.0,0.0,0.0,0.0,0.0,9999.0,0.0,0.0,0.0,0.0,0.0,0.0,9999.0,0.0,0.0,0.0,0.0,0.0,0.0,9999.0,0.0,0.0,0.0,0.0,0.0,0.0,9999.0
1549409015058799258,33482,1549409014983755929,map,gps_link,-1.32318161411,2.31356506422,209.733,0.0,0.0,0.0,1.0,0.0001,0.0,0.0,0.0,0.0,0.0,0.0,0.0001,0.0,0.0,0.0,0.0,0.0,0.0,0.0001,0.0,0.0,0.0,0.0,0.0,0.0,99999.0,0.0,0.0,0.0,0.0,0.0,0.0,99999.0,0.0,0.0,0.0,0.0,0.0,0.0,99999.0,0.0,0.0,0.0,0.0,0.0,0.0,9999.0,0.0,0.0,0.0,0.0,0.0,0.0,9999.0,0.0,0.0,0.0,0.0,0.0,0.0,9999.0,0.0,0.0,0.0,0.0,0.0,0.0,9999.0,0.0,0.0,0.0,0.0,0.0,0.0,9999.0,0.0,0.0,0.0,0.0,0.0,0.0,9999.0
1549409015097935604,33483,1549409015009900762,map,gps_link,-1.32318161411,2.31356506422,209.733,0.0,0.0,0.0,1.0,0.0001,0.0,0.0,0.0,0.0,0.0,0.0,0.0001,0.0,0.0,0.0,0.0,0.0,0.0,0.0001,0.0,0.0,0.0,0.0,0.0,0.0,99999.0,0.0,0.0,0.0,0.0,0.0,0.0,99999.0,0.0,0.0,0.0,0.0,0.0,0.0,99999.0,0.0,0.0,0.0,0.0,0.0,0.0,9999.0,0.0,0.0,0.0,0.0,0.0,0.0,9999.0,0.0,0.0,0.0,0.0,0.0,0.0,9999.0,0.0,0.0,0.0,0.0,0.0,0.0,9999.0,0.0,0.0,0.0,0.0,0.0,0.0,9999.0,0.0,0.0,0.0,0.0,0.0,0.0,9999.0
1549409015135811961,33484,1549409015034384762,map,gps_link,-1.32318161411,2.31356506422,209.733,0.0,0.0,0.0,1.0,0.0001,0.0,0.0,0.0,0.0,0.0,0.0,0.0001,0.0,0.0,0.0,0.0,0.0,0.0,0.0001,0.0,0.0,0.0,0.0,0.0,0.0,99999.0,0.0,0.0,0.0,0.0,0.0,0.0,99999.0,0.0,0.0,0.0,0.0,0.0,0.0,99999.0,0.0,0.0,0.0,0.0,0.0,0.0,9999.0,0.0,0.0,0.0,0.0,0.0,0.0,9999.0,0.0,0.0,0.0,0.0,0.0,0.0,9999.0,0.0,0.0,0.0,0.0,0.0,0.0,9999.0,0.0,0.0,0.0,0.0,0.0,0.0,9999.0,0.0,0.0,0.0,0.0,0.0,0.0,9999.0
1549409015135873309,33485,1549409015058788929,map,gps_link,-1.32318161411,2.31356506422,209.733,0.0,0.0,0.0,1.0,0.0001,0.0,0.0,0.0,0.0,0.0,0.0,0.0001,0.0,0.0,0.0,0.0,0.0,0.0,0.0001,0.0,0.0,0.0,0.0,0.0,0.0,99999.0,0.0,0.0,0.0,0.0,0.0,0.0,99999.0,0.0,0.0,0.0,0.0,0.0,0.0,99999.0,0.0,0.0,0.0,0.0,0.0,0.0,9999.0,0.0,0.0,0.0,0.0,0.0,0.0,9999.0,0.0,0.0,0.0,0.0,0.0,0.0,9999.0,0.0,0.0,0.0,0.0,0.0,0.0,9999.0,0.0,0.0,0.0,0.0,0.0,0.0,9999.0,0.0,0.0,0.0,0.0,0.0,0.0,9999.0
